{"version": 0.6, "generator": "Overpass API 0.7.62.4 2390de5a", "osm3s": {"timestamp_osm_base": "2024-12-10T15:18:30Z", "copyright": "The data included in this document is from www.openstreetmap.org. The data is made available under ODbL."}, "elements": [{"type": "node", "id": 293569335, "lat": 3.1764241, "lon": 101.6993415, "tags": {"addr:postcode": "53000", "addr:street": "Jalan Pahang Barat", "amenity": "restaurant", "cuisine": "malaysian", "is_in": "Setapak, Kuala Lumpur, Malaysia", "name": "Mee Bandung House (Muar)"}}, {"type": "node", "id": 293569337, "lat": 3.1764224, "lon": 101.699189, "tags": {"addr:postcode": "53000", "addr:street": "Jalan Pahang Barat", "amenity": "restaurant", "cuisine": "malaysian", "is_in": "Setapak, Kuala Lumpur, Malaysia", "name": "Restoran Haslam"}}, {"type": "node", "id": 293569339, "lat": 3.1764176, "lon": 101.6987407, "tags": {"brand": "7-Eleven", "brand:wikidata": "Q259340", "brand:wikipedia": "en:7-Eleven", "currency:MYR": "yes", "name": "7-Eleven", "opening_hours": "24/7", "operator": "7-Eleven Malaysia Sdn Bhd", "payment:cash": "yes", "payment:coins": "yes", "payment:touchngo": "yes", "payment:visa": "yes", "phone": "+603-2142 1136", "shop": "convenience", "short_name": "7-11", "website": "https://www.7eleven.com.my/"}}, {"type": "node", "id": 305480544, "lat": 3.1767437, "lon": 101.7030268, "tags": {"amenity": "restaurant", "cuisine": "malaysian", "name": "Food Stalls", "name:en": "Food Stalls"}}, {"type": "node", "id": 312108493, "lat": 3.1772107, "lon": 101.6997923, "tags": {"addr:city": "Kuala Lumpur", "addr:housenumber": "202-A", "addr:postcode": "53000", "addr:street": "Jalan Pahang", "amenity": "hospital", "emergency": "yes", "healthcare": "hospital", "name": "Hospital Tawakal", "name:ms": "Hospital Tawakal", "operator": "Hospital Tawakal", "operator:type": "private", "phone": "+603-4023 3599"}}, {"type": "node", "id": 343202973, "lat": 3.1465113, "lon": 101.6983657, "tags": {"addr:city": "Kuala Lumpur", "branch": "Sinar Kota Emporium", "brand": "Mydin", "brand:wikidata": "Q6947269", "brand:wikipedia": "en:Mydin", "name": "Mydin", "name:zh": "\u8fc8\u6c40", "official_name": "Mydin Sinar Kota Emporium", "shop": "supermarket"}}, {"type": "node", "id": 478497927, "lat": 3.1562268, "lon": 101.7035825, "tags": {"name": "Terowong Bukit Nanas", "name:en": "Bukit Nanas Tunnel", "name:ms": "Terowong Bukit Nanas", "name:zh": "\u5496\u5561\u5c71\u96a7\u9053", "name:zh-Hans": "\u5496\u5561\u5c71\u96a7\u9053", "name:zh-Hant": "\u5496\u5561\u5c71\u96a7\u9053", "tourism": "attraction"}}, {"type": "node", "id": 482898720, "lat": 3.1588083, "lon": 101.7000583, "tags": {"addr:city": "Kuala Lumpur", "addr:postcode": "50250", "addr:street": "Jalan Sultan Ismail", "brand": "Sheraton", "brand:wikidata": "Q634831", "brand:wikipedia": "en:Sheraton Hotels and Resorts", "internet_access": "yes", "internet_access:fee": "customers", "name": "Sheraton Imperial Kuala Lumpur Hotel", "name:en": "Sheraton Imperial Kuala Lumpur Hotel", "rooms": "398", "stars": "5", "tourism": "hotel", "wikidata": "Q111515981"}}, {"type": "node", "id": 534648572, "lat": 3.1512638, "lon": 101.6961245, "tags": {"name": "Citin Masjid Jamek", "tourism": "hotel"}}, {"type": "node", "id": 921975071, "lat": 3.1455377, "lon": 101.7071812, "tags": {"name": "Anggun", "name:en": "Anggun", "name:ms": "Anggun", "tourism": "hotel"}}, {"type": "node", "id": 1231715034, "lat": 3.157215, "lon": 101.705384, "tags": {"addr:city": "Kuala Lumpur", "addr:postcode": "50450", "addr:street": "Corner of Jalan Sultan Ismail and Jalan Ampang", "air_conditioning": "yes", "brand": "Renaissance", "brand:wikidata": "Q2143252", "brand:wikipedia": "en:Renaissance Hotels", "contact:instagram": "https://www.instagram.com/renaissancekualalumpur/", "facebook": "https://www.facebook.com/RenaissanceKualaLumpur", "internet_access": "wlan", "internet_access:fee": "customers", "name": "Renaissance Kuala Lumpur Hotel", "name:en": "Renaissance Kuala Lumpur Hotel", "phone": "+60327068088", "rooms": "406", "stars": "5", "tourism": "hotel", "website": "https://www.marriott.com/en-us/hotels/kulrn-renaissance-kuala-lumpur-hotel-and-convention-centre/overview/?scid=f2ae0541-1279-4f24-b197-a979c79310b0", "wikidata": "Q7312425", "wikimedia_commons": "Category:Renaissance Kuala Lumpur Hotel", "wikipedia": "en:Renaissance Kuala Lumpur Hotel"}}, {"type": "node", "id": 1326944906, "lat": 3.1502588, "lon": 101.7144661, "tags": {"addr:housenumber": "4", "addr:postcode": "50450", "addr:street": "Jalan Conlay", "brand": "Pullman", "brand:wikidata": "Q3410757", "brand:wikipedia": "en:Pullman Hotels and Resorts", "name": "Pullman", "name:en": "Pullman", "phone": "+60321708888", "rooms": "448", "stars": "5", "tourism": "hotel", "website": "https://www.princehotelkl.com/"}}, {"type": "node", "id": 1383981993, "lat": 3.1529132, "lon": 101.7082301, "tags": {"addr:city": "Kuala Lumpur", "addr:housenumber": "19", "addr:postcode": "50450", "addr:street": "Jalan Sultan Ismail", "amenity": "restaurant", "cuisine": "european", "name": "NEO Tamarind", "name:en": "NEO Tamarind", "website": "https://www.samadhiretreats.com/neo-tamarind.html"}}, {"type": "node", "id": 1444606414, "lat": 3.1436954, "lon": 101.6985575, "tags": {"addr:city": "Kuala Lumpur", "addr:housenumber": "62", "addr:postcode": "50000", "addr:street": "Jalan Sultan", "internet_access": "wlan", "name": "Swiss Inn", "tourism": "hotel"}}, {"type": "node", "id": 1449579223, "lat": 3.1556171, "lon": 101.7054722, "tags": {"amenity": "restaurant", "brand": "Hard Rock Cafe", "brand:wikidata": "Q918151", "brand:wikipedia": "en:Hard Rock Cafe", "cuisine": "american", "name": "Hard Rock Cafe"}}, {"type": "node", "id": 1543747877, "lat": 3.1454922, "lon": 101.7150729, "tags": {"amenity": "restaurant", "cuisine": "chinese", "name": "Restoran Win Heng Seng", "name:ms": "Restoran Win Heng Seng"}}, {"type": "node", "id": 1543756698, "lat": 3.1453392, "lon": 101.7148947, "tags": {"brand": "Hotel Sempurna", "name": "Hotel Sempurna", "name:en": "Hotel Sempurna", "name:ms": "Hotel Sempurna", "tourism": "hotel"}}, {"type": "node", "id": 1543765752, "lat": 3.1457436, "lon": 101.7148518, "tags": {"addr:housenumber": "138", "addr:postcode": "55100", "addr:street": "Jalan Imbi", "brand": "7-Eleven", "brand:wikidata": "Q259340", "brand:wikipedia": "en:7-Eleven", "currency:MYR": "yes", "name": "7-Eleven", "operator": "7-Eleven Malaysia Sdn Bhd", "payment:cash": "yes", "payment:coins": "yes", "payment:touchngo": "yes", "payment:visa": "yes", "phone": "+603-2142 1136", "shop": "convenience", "short_name": "7-11", "website": "https://www.7eleven.com.my/"}}, {"type": "node", "id": 1543767734, "lat": 3.1443335, "lon": 101.7121987, "tags": {"brand": "PARKROYAL", "brand:wikidata": "Q4272131", "name": "PARKROYAL COLLECTION Kuala Lumpur", "name:en": "PARKROYAL COLLECTION Kuala Lumpur", "tourism": "hotel"}}, {"type": "node", "id": 1543771724, "lat": 3.1445109, "lon": 101.7139002, "tags": {"brand": "7-Eleven", "brand:wikidata": "Q259340", "brand:wikipedia": "en:7-Eleven", "currency:MYR": "yes", "name": "7-Eleven", "operator": "7-Eleven Malaysia Sdn Bhd", "payment:cash": "yes", "payment:coins": "yes", "payment:touchngo": "yes", "payment:visa": "yes", "phone": "+603-2142 1136", "shop": "convenience", "short_name": "7-11", "website": "https://www.7eleven.com.my/"}}, {"type": "node", "id": 1543871799, "lat": 3.1445994, "lon": 101.7140074, "tags": {"name": "Five Seven Mini Mart 24 Hours", "shop": "convenience"}}, {"type": "node", "id": 1543871801, "lat": 3.1445538, "lon": 101.7139565, "tags": {"amenity": "restaurant", "brand": "Pizza Hut", "brand:wikidata": "Q191615", "brand:wikipedia": "en:Pizza Hut", "cuisine": "pizza", "name": "Pizza Hut"}}, {"type": "node", "id": 1543871802, "lat": 3.1442084, "lon": 101.7135354, "tags": {"name": "Hotel Homely", "tourism": "hotel"}}, {"type": "node", "id": 1543875942, "lat": 3.1443449, "lon": 101.7131357, "tags": {"amenity": "restaurant", "name": "Restoran Taiwan", "name:ms": "Restoran Taiwan"}}, {"type": "node", "id": 1543875950, "lat": 3.144977, "lon": 101.7139645, "tags": {"amenity": "restaurant", "name": "Restoran Chef Rasa Sayang", "name:ms": "Restoran Chef Rasa Sayang"}}, {"type": "node", "id": 1543875953, "lat": 3.1445976, "lon": 101.7134509, "tags": {"amenity": "restaurant", "name": "Restoran Oversea", "name:en": "Restoran Oversea", "name:zh": "\u6d77\u71d5\u9910\u5ef3"}}, {"type": "node", "id": 1544273704, "lat": 3.1447145, "lon": 101.7135756, "tags": {"amenity": "restaurant", "name": "Restoran Fong Lye"}}, {"type": "node", "id": 1544273717, "lat": 3.14491, "lon": 101.7138438, "tags": {"amenity": "restaurant", "diet:vegetarian": "only", "name": "Pure Mind Vegetarian Restaurant"}}, {"type": "node", "id": 1568686703, "lat": 3.1453225, "lon": 101.712441, "tags": {"brand": "Hotel Royal", "name": "Hotel Royal", "name:en": "Hotel Royal", "name:ms": "Hotel Royal", "tourism": "hotel"}}, {"type": "node", "id": 1568686704, "lat": 3.1453385, "lon": 101.7125376, "tags": {"brand": "7-Eleven", "brand:wikidata": "Q259340", "brand:wikipedia": "en:7-Eleven", "currency:MYR": "yes", "name": "7-Eleven", "operator": "7-Eleven Malaysia Sdn Bhd", "payment:cash": "yes", "payment:coins": "yes", "payment:touchngo": "yes", "payment:visa": "yes", "phone": "+603-2142 1136", "shop": "convenience", "short_name": "7-11", "website": "https://www.7eleven.com.my/"}}, {"type": "node", "id": 1568696148, "lat": 3.1450332, "lon": 101.7126797, "tags": {"name": "Bintang Fairlane Residences", "tourism": "hotel"}}, {"type": "node", "id": 1624820901, "lat": 3.1448602, "lon": 101.7061467, "tags": {"amenity": "restaurant", "cuisine": "chinese", "diet:vegan": "yes", "diet:vegetarian": "only", "name": "Blue Boy Vegetarian Restaurant", "name:en": "Blue Boy Vegetarian Restaurant", "name:it": "Blue Boy", "opening_hours": "Mo-Su 08:00-16:00"}}, {"type": "node", "id": 1632124338, "lat": 3.141956, "lon": 101.6971829, "tags": {"addr:city": "Kuala Lumpur", "addr:housenumber": "8", "addr:postcode": "50000", "addr:street": "Jalan Panggung", "air_conditioning": "yes", "amenity": "restaurant", "contact:facebook": "https://www.facebook.com/voilafoodhubsb/", "diet:vegan": "yes", "diet:vegetarian": "only", "name": "Voil\u00e0 Meat Free Restaurant", "name:en": "Voil\u00e0 Meat Free Restaurant", "opening_hours": "Mo,We-Su 10:00-21:00", "phone": "+60 10-938 5228", "toilets": "yes"}}, {"type": "node", "id": 1632130723, "lat": 3.142798, "lon": 101.6960289, "tags": {"brand": "Starlight", "contact:phone": "+60 03 20789811", "name": "Starlight", "name:en": "Starlight", "name:zh": "\u661f\u5149\u9152\u5e97", "name:zh-Hans": "\u661f\u5149\u9152\u5e97", "name:zh-Hant": "\u661f\u5149\u9152\u5e97", "tourism": "hotel"}}, {"type": "node", "id": 1694195119, "lat": 3.1489302, "lon": 101.6978845, "tags": {"addr:housenumber": "23", "addr:postcode": "50000", "addr:street": "Jalan Tun H. S. Lee", "amenity": "restaurant", "contact:phone": "+60 03 20706561", "cuisine": "chinese", "diet:vegan": "yes", "diet:vegetarian": "only", "name": "Water Lily Vegetarian"}}, {"type": "node", "id": 1694203004, "lat": 3.1668412, "lon": 101.6945821, "tags": {"amenity": "restaurant", "diet:vegetarian": "only", "name": "Cameleon Beancurd Vegetarian", "name:en": "Cameleon Beancurd Vegetarian", "name:zh": "\u7518\u5473\u6797\u852c\u98df\u9910\u5ef3", "opening_hours": "11:00-22:30", "phone": "+60162276949"}}, {"type": "node", "id": 1770397776, "lat": 3.1496976, "lon": 101.7169644, "tags": {"addr:city": "Kuala Lumpur", "addr:housenumber": "5", "addr:postcode": "50450", "addr:street": "Jalan Conlay", "air_conditioning": "yes", "internet_access": "yes", "internet_access:fee": "no", "name": "Royale Chulan Kuala Lumpur", "name:en": "Royale Chulan Kuala Lumpur", "name:zh": "\u5409\u9686\u5761\u7687\u5bb6\u6731\u5170\u9152\u5e97", "name:zh-Hans": "\u5409\u9686\u5761\u7687\u5bb6\u6731\u5170\u9152\u5e97", "name:zh-Hant": "\u5409\u9686\u5761\u7687\u5bb6\u6731\u862d\u9152\u5e97", "operator": "Boustead Hotels and Resorts Sdn. Bhd.", "stars": "5", "tourism": "hotel", "website": "https://www.royalechulan-kualalumpur.com", "wheelchair": "yes"}}, {"type": "node", "id": 1812003915, "lat": 3.1660321, "lon": 101.6948363, "tags": {"name": "Hotel Zamburger", "tourism": "hotel"}}, {"type": "node", "id": 1812003919, "lat": 3.1668816, "lon": 101.6955146, "tags": {"addr:city": "Kuala Lumpur", "addr:housenumber": "63", "addr:postcode": "50350", "addr:street": "Jalan Putra", "name": "Sani Hotel", "name:zh": "\u73ca\u5c3c\u9152\u5e97", "tourism": "hotel", "website": "https://www.sanihotel.com.my/"}}, {"type": "node", "id": 1812022269, "lat": 3.1625913, "lon": 101.6956302, "tags": {"brand": "7-Eleven", "brand:wikidata": "Q259340", "brand:wikipedia": "en:7-Eleven", "currency:MYR": "yes", "name": "7-Eleven", "operator": "7-Eleven Malaysia Sdn Bhd", "payment:cash": "yes", "payment:coins": "yes", "payment:touchngo": "yes", "payment:visa": "yes", "phone": "+603-2142 1136", "shop": "convenience", "short_name": "7-11", "website": "https://www.7eleven.com.my/"}}, {"type": "node", "id": 1812022272, "lat": 3.1622206, "lon": 101.6955622, "tags": {"bench": "yes", "bin": "yes", "bus": "yes", "highway": "bus_stop", "name": "LRT Sultan Ismail/Wisma Sime Darby", "name:ms": "LRT Sultan Ismail/Wisma Sime Darby", "operator": "Rapid Bus;MARA Liner;Selangor Omnibus;DBKL", "public_transport": "platform", "ref": "KL41", "route_ref": "RED;BLUE;150;151;171;173;190;202;220;250", "shelter": "yes"}}, {"type": "node", "id": 1813382090, "lat": 3.17132, "lon": 101.7097894, "tags": {"name": "Hotel Putra Jalan Tun Razak", "name:ms": "Hotel Putra Jalan Tun Razak", "tourism": "hotel"}}, {"type": "node", "id": 1813382765, "lat": 3.1732673, "lon": 101.7063959, "tags": {"access": "permissive", "amenity": "hospital", "healthcare": "hospital", "name": "National Blood Bank Malaysia"}}, {"type": "node", "id": 1859717290, "lat": 3.1445214, "lon": 101.7108414, "tags": {"branch": "Sungei Wang", "brand": "Giant Hypermarket", "brand:wikidata": "Q4217013", "brand:wikipedia": "en:Giant (hypermarket)", "level": "0", "name": "Giant Hypermarket", "official_name": "Giant Supermarket Sungei Wang", "opening_hours": "Mo-Su 08:00-22:00", "shop": "supermarket"}}, {"type": "node", "id": 1919710738, "lat": 3.1514614, "lon": 101.7027596, "tags": {"facebook": "https://www.facebook.com/klupsidedown/", "name": "Upside Down House", "opening_hours": "09:00-19:00", "phone": "+60 10 802 7547", "tourism": "attraction", "website": "https://www.menarakl.com.my/index.php/attractions/tower-attractions/upside-down-house"}}, {"type": "node", "id": 1919715404, "lat": 3.1500612, "lon": 101.7024185, "tags": {"museum": "nature", "name": "Galeri Interaktif NRE", "name:en": "Forestry Information Centre", "opening_hours": "Mo-Su 09:00-17:00", "tourism": "museum"}}, {"type": "node", "id": 1919719972, "lat": 3.1483213, "lon": 101.6975995, "tags": {"addr:city": "Kuala Lumpur", "addr:housenumber": "54", "addr:postcode": "50050", "addr:street": "Jalan Tun Perak", "amenity": "restaurant", "cuisine": "chinese", "diet:vegan": "only", "name": "Nam Chew Coffee Shop", "name:en": "Nam Chew Coffee Shop", "name:zh": "\u5357\u6d32"}}, {"type": "node", "id": 1919723603, "lat": 3.1489294, "lon": 101.6973675, "tags": {"addr:city": "Kuala Lumpur", "addr:housenumber": "55", "addr:postcode": "50100", "addr:street": "Leboh Ampang", "air_conditioning": "yes", "amenity": "restaurant", "cuisine": "indian", "diet:vegan": "yes", "diet:vegetarian": "only", "name": "Raj Bhavan"}}, {"type": "node", "id": 1919723604, "lat": 3.1490958, "lon": 101.6975362, "tags": {"addr:housenumber": "63", "addr:street": "Leboh Ampang", "amenity": "restaurant", "cuisine": "indian", "diet:vegan": "yes", "diet:vegetarian": "only", "name": "Lakshmi Vilas Superior", "name:en": "Lakshmi Vilas Superior"}}, {"type": "node", "id": 1989257074, "lat": 3.1636386, "lon": 101.6954209, "tags": {"name": "Hotel Wilayah", "tourism": "hotel"}}, {"type": "node", "id": 1992073074, "lat": 3.162859, "lon": 101.6965075, "tags": {"amenity": "restaurant", "name": "Al-Ibrahim Maju", "name:ms": "Al-Ibrahim Maju"}}, {"type": "node", "id": 2014877976, "lat": 3.1423368, "lon": 101.7097651, "tags": {"name": "Berjaya Times Square Hotel", "tourism": "hotel"}}, {"type": "node", "id": 2021291518, "lat": 3.1541698, "lon": 101.7064587, "tags": {"addr:city": "Kuala Lumpur", "addr:country": "MY", "addr:housenumber": "11", "addr:postcode": "50250", "addr:street": "Jalan Sultan Ismail", "air_conditioning": "yes", "brand": "Shangri-La Hotels and Resorts", "contact:website": "http://www.shangri-la.com/kualalumpur/", "email": "kualalumpur@shangri-la.com", "internet_access": "wlan", "name": "Shangri-La Hotel", "name:en": "Shangri-La Hotel", "name:zh": "\u5409\u9686\u5761\u9999\u683c\u91cc\u62c9\u5927\u9152\u5e97", "name:zh-Hans": "\u5409\u9686\u5761\u9999\u683c\u91cc\u62c9\u5927\u9152\u5e97", "name:zh-Hant": "\u5409\u9686\u5761\u9999\u683c\u91cc\u62c9\u5927\u98ef\u5e97", "payment:credit_cards": "yes", "phone": "+603 20322388", "smoking": "no", "stars": "5", "tourism": "hotel", "wheelchair": "limited", "wikidata": "Q7488586", "wikimedia_commons": "Category:Shangri-La Kuala Lumpur", "wikipedia": "en:Shangri-La Kuala Lumpur"}}, {"type": "node", "id": 2074080756, "lat": 3.146891, "lon": 101.6972064, "tags": {"name": "Chill Inn", "name:en": "Chill Inn", "note": "Very bad online ratings", "tourism": "hotel"}}, {"type": "node", "id": 2267890566, "lat": 3.1515468, "lon": 101.6956726, "tags": {"brand": "7-Eleven", "brand:wikidata": "Q259340", "brand:wikipedia": "en:7-Eleven", "currency:MYR": "yes", "name": "7-Eleven", "operator": "7-Eleven Malaysia Sdn Bhd", "payment:cash": "yes", "payment:coins": "yes", "payment:touchngo": "yes", "payment:visa": "yes", "phone": "+603-2142 1136", "shop": "convenience", "short_name": "7-11", "website": "https://www.7eleven.com.my/"}}, {"type": "node", "id": 2294792462, "lat": 3.1478855, "lon": 101.7073937, "tags": {"amenity": "restaurant", "cuisine": "mexican", "level": "0", "name": "La Chica Mexicana", "website": "https://www.theolivetreegroup.com/our-brands/la-chica/"}}, {"type": "node", "id": 2294792464, "lat": 3.1479897, "lon": 101.7072015, "tags": {"addr:city": "Kuala Lumpur", "addr:housenumber": "18", "addr:postcode": "50200", "addr:street": "Changkat Bukit Bintang", "amenity": "restaurant", "cuisine": "tapas", "name": "Pinchos"}}, {"type": "node", "id": 2294792465, "lat": 3.147929, "lon": 101.7073119, "tags": {"addr:city": "Kuala Lumpur", "addr:housenumber": "20", "addr:postcode": "50200", "addr:street": "Changkat Bukit Bintang", "name": "Zugo Mart", "opening_hours": "Mo-Su 08:30-01:00", "shop": "convenience"}}, {"type": "node", "id": 2294795555, "lat": 3.1463491, "lon": 101.7077593, "tags": {"addr:country": "MY", "addr:street": "Tengkat Tong Shin", "branch": "Tong Shin", "brand": "KK Super Mart", "brand:wikidata": "Q95721993", "name": "KK Super Mart", "opening_hours": "Mo-Su 06:00-24:00", "operator": "KK Supermart & Superstore Sdn Bhd", "ref": "TTS", "shop": "convenience", "short_name": "KK", "website": "https://kkgroup.my/kk-super-mart", "wheelchair": "limited"}}, {"type": "node", "id": 2294795556, "lat": 3.147226, "lon": 101.7087622, "tags": {"addr:city": "Kuala Lumpur", "addr:country": "MY", "addr:postcode": "50200", "addr:street": "Changkat Bukit Bintang", "atm": "yes", "branch": "Changkat Bukit Bintang", "brand": "KK Super Mart", "brand:wikidata": "Q95721993", "name": "KK Super Mart", "opening_hours": "24/7", "operator": "KK Supermart & Superstore Sdn Bhd", "ref": "CBB", "shop": "convenience", "short_name": "KK", "website": "https://kkgroup.my/kk-super-mart"}}, {"type": "node", "id": 2294795558, "lat": 3.1463506, "lon": 101.7081705, "tags": {"amenity": "restaurant", "name": "Herbs & Spices"}}, {"type": "node", "id": 2364021975, "lat": 3.1678731, "lon": 101.708762, "tags": {"bench": "yes", "bin": "yes", "bus": "yes", "highway": "bus_stop", "lit": "yes", "name": "Yayasan Selangor (Opp)", "name:en": "Yayasan Selangor (Opp)", "name:ms": "Yayasan Selangor (Opp)", "operator": "Rapid KL;DBKL", "public_transport": "platform", "ref": "KL63", "route_ref": "220;302;ORANGE", "shelter": "yes"}}, {"type": "node", "id": 2364022004, "lat": 3.1729304, "lon": 101.695644, "tags": {"bench": "yes", "bin": "yes", "bus": "yes", "departures_board": "no", "highway": "bus_stop", "name": "LRT Titiwangsa", "name:en": "LRT Titiwangsa", "name:ms": "LRT Titiwangsa", "network": "Rapid KL", "network:wikidata": "Q3271384", "operator": "Prasarana Malaysia", "operator:wikidata": "Q4209298", "public_transport": "platform", "ref": "KL275", "shelter": "yes", "tactile_paving": "no", "wheelchair": "yes"}}, {"type": "node", "id": 2364022016, "lat": 3.1707829, "lon": 101.709836, "tags": {"bench": "yes", "bin": "yes", "bus": "yes", "highway": "bus_stop", "name": "Hospital Pusrawi", "name:en": "Hospital Pusrawi", "name:ms": "Hospital Pusrawi", "operator": "Rapid KL;DBKL", "public_transport": "platform", "ref": "KL1638", "route_ref": "402;ORANGE", "shelter": "yes"}}, {"type": "node", "id": 2364022090, "lat": 3.1679984, "lon": 101.7088724, "tags": {"bus": "yes", "highway": "bus_stop", "name": "Yayasan Selangor", "name:en": "Yayasan Selangor", "name:ms": "Yayasan Selangor", "operator": "Rapid KL", "public_transport": "platform", "ref": "KL60", "route_ref": "220;302"}}, {"type": "node", "id": 2367989182, "lat": 3.1719129, "lon": 101.6916874, "tags": {"name": "Dynasty Hotel", "name:en": "Dynasty Hotel", "tourism": "hotel"}}, {"type": "node", "id": 2378755760, "lat": 3.1780087, "lon": 101.700408, "tags": {"bench": "yes", "bin": "yes", "bus": "yes", "departures_board": "no", "highway": "bus_stop", "name": "SJKC Chiao Nan (Opp)", "name:en": "SJKC Chiao Nan (Opp)", "name:zh": "\u4fa8\u5357\u534e\u6587\u5c0f\u5b66 \uff08\u5bf9\u9762\uff09", "name:zh-Hans": "\u4fa8\u5357\u534e\u6587\u5c0f\u5b66 \uff08\u5bf9\u9762\uff09", "name:zh-Hant": "\u50d1\u5357\u83ef\u6587\u5c0f\u5b78 \uff08\u5c0d\u9762\uff09", "operator": "Rapid KL", "public_transport": "platform", "ref": "KL694", "shelter": "yes", "tactile_paving": "no", "wheelchair": "yes"}}, {"type": "node", "id": 2378773465, "lat": 3.1782831, "lon": 101.699995, "tags": {"branch": "Pahang", "brand": "7-Eleven", "brand:wikidata": "Q259340", "brand:wikipedia": "en:7-Eleven", "name": "7-Eleven", "shop": "convenience"}}, {"type": "node", "id": 2455239666, "lat": 3.1404499, "lon": 101.6935743, "tags": {"amenity": "restaurant", "cuisine": "malaysian", "name": "Restoran Heritage One Station", "name:en": "Heritage One Station Restaurant", "name:ms": "Restoran Heritage One Station"}}, {"type": "node", "id": 2505580082, "lat": 3.1673887, "lon": 101.6981468, "tags": {"bus": "yes", "highway": "bus_stop", "name": "Monorel Chow Kit", "name:ms": "Monorel Chow Kit", "public_transport": "platform", "ref": "KL68", "route_ref": "173;171"}}, {"type": "node", "id": 2505580083, "lat": 3.1685011, "lon": 101.6970627, "tags": {"bench": "yes", "bin": "yes", "bus": "yes", "departures_board": "no", "highway": "bus_stop", "name": "Standard Chartered Bank", "operator": "Selangor Omnibus;MARA Liner", "public_transport": "platform", "ref": "KL51", "shelter": "yes", "tactile_paving": "yes", "wheelchair": "yes"}}, {"type": "node", "id": 2516025196, "lat": 3.147136, "lon": 101.69481, "tags": {"bench": "no", "bin": "no", "bus": "yes", "highway": "bus_stop", "name": "Muzium Tekstil Negara", "name:ms": "Muzium Tekstil Negara", "old_name": "Agro Bank (Opp)", "operator": "Rapid KL", "public_transport": "platform", "ref": "KL1934", "route_ref": "151;171;173;190;202;220;250", "shelter": "no", "source": "data.gov.my"}}, {"type": "node", "id": 2596239080, "lat": 3.1445381, "lon": 101.7060292, "tags": {"brand": "7-Eleven", "brand:wikidata": "Q259340", "brand:wikipedia": "en:7-Eleven", "check_date": "2024-11-28", "currency:MYR": "yes", "name": "7-Eleven", "operator": "7-Eleven Malaysia Sdn Bhd", "payment:cash": "yes", "payment:coins": "yes", "payment:touchngo": "yes", "payment:visa": "yes", "phone": "+603-2142 1136", "shop": "convenience", "short_name": "7-11", "website": "https://www.7eleven.com.my/"}}, {"type": "node", "id": 2639528005, "lat": 3.1474077, "lon": 101.696113, "tags": {"addr:housenumber": "17", "addr:street": "Medan Pasar", "brand": "A-one Hotel", "name": "A-one Hotel", "name:en": "A-one Hotel", "phone": "+60 3-2070 7309", "tourism": "hotel"}}, {"type": "node", "id": 2677292823, "lat": 3.1467318, "lon": 101.6986534, "tags": {"alt_name": "MYDIN Sinar Kota;MYDIN Kotaraya", "amenity": "bus_station", "bench": "no", "bus": "yes", "name": "Hab Lebuh Pudu (TP)", "name:ms": "Hab Lebuh Pudu (TP)", "network": "Rapid KL Bus", "operator": "Rapid Bus;MARA Liner", "public_transport": "station", "ref": "KL113", "route_ref": "150;151;450;590;851;BET5;BET6", "shelter": "yes", "wheelchair": "limited"}}, {"type": "node", "id": 2824319753, "lat": 3.1440084, "lon": 101.6956555, "tags": {"bus": "yes", "highway": "bus_stop", "public_transport": "platform", "shelter": "no"}}, {"type": "node", "id": 2824319757, "lat": 3.1458021, "lon": 101.7070639, "tags": {"name": "D'Or", "name:en": "D'Or", "name:ms": "D'Or", "tourism": "hotel"}}, {"type": "node", "id": 2870398500, "lat": 3.1462392, "lon": 101.7004033, "tags": {"brand": "7-Eleven", "brand:wikidata": "Q259340", "brand:wikipedia": "en:7-Eleven", "currency:MYR": "yes", "level": "0", "name": "7-Eleven", "opening_hours": "24/7", "operator": "7-Eleven Malaysia Sdn Bhd", "payment:cash": "yes", "payment:coins": "yes", "payment:touchngo": "yes", "payment:visa": "yes", "phone": "+60 3-2142 1136", "shop": "convenience", "short_name": "7-11", "website": "https://www.7eleven.com.my/"}}, {"type": "node", "id": 2881830827, "lat": 3.1462436, "lon": 101.7091044, "tags": {"amenity": "restaurant", "name": "Noy Thai Seafood", "name:en": "Noy Thai Seafood"}}, {"type": "node", "id": 2910929904, "lat": 3.141637, "lon": 101.7111643, "tags": {"access": "yes", "amenity": "parking", "fee": "yes", "layer": "-1", "lit": "yes", "parking": "underground", "supervised": "yes", "surface": "concrete"}}, {"type": "node", "id": 2910929908, "lat": 3.1436362, "lon": 101.7098126, "tags": {"access": "yes", "amenity": "parking", "fee": "yes", "layer": "-1", "lit": "yes", "parking": "underground", "supervised": "yes", "surface": "concrete"}}, {"type": "node", "id": 2910929916, "lat": 3.1444581, "lon": 101.7105452, "tags": {"access": "yes", "amenity": "parking", "fee": "yes", "layer": "-1", "lit": "yes", "parking": "underground", "supervised": "yes", "surface": "concrete"}}, {"type": "node", "id": 2910929918, "lat": 3.1459712, "lon": 101.7131361, "tags": {"amenity": "restaurant", "cuisine": "indian", "name": "Al-Muhammadi", "name:en": "Al-Muhammadi", "name:ms": "Al-Muhammadi"}}, {"type": "node", "id": 2917317311, "lat": 3.1476624, "lon": 101.7085848, "tags": {"addr:city": "Kuala Lumpur", "addr:housenumber": "35", "addr:postcode": "50200", "addr:street": "Jalan Berangan", "amenity": "restaurant", "cuisine": "arab", "facebook": "https://www.facebook.com/restauranthalab1/", "name": "Halab - Berangan", "opening_hours": "11:00-04:00, Fr,Sa 11:00-06:00; Mo-Su 10:00-04:00", "phone": "+60 32110 4146", "website": "https://halabrestaurant.com/"}}, {"type": "node", "id": 2917317314, "lat": 3.1460531, "lon": 101.7093955, "tags": {"amenity": "restaurant", "name": "Restaurant Yenn", "name:en": "Restaurant Yenn"}}, {"type": "node", "id": 2917317316, "lat": 3.146161, "lon": 101.7095591, "tags": {"amenity": "restaurant", "name": "Cu Cha Restaurant", "name:en": "Cu Cha Restaurant"}}, {"type": "node", "id": 2917406000, "lat": 3.1459247, "lon": 101.711946, "tags": {"amenity": "restaurant", "cuisine": "chinese", "name": "Zu Chuan", "name:en": "Zu Chuan"}}, {"type": "node", "id": 2918242549, "lat": 3.144061, "lon": 101.71048, "tags": {"amenity": "restaurant", "name": "Hong Kong's Food Culture"}}, {"type": "node", "id": 2941484436, "lat": 3.1539078, "lon": 101.6983015, "tags": {"name": "Silka Maytower Hotel & Serviced Residences", "tourism": "hotel"}}, {"type": "node", "id": 2941491188, "lat": 3.1567203, "lon": 101.6965426, "tags": {"brand": "7-Eleven", "brand:wikidata": "Q259340", "brand:wikipedia": "en:7-Eleven", "currency:MYR": "yes", "name": "7-Eleven", "operator": "7-Eleven Malaysia Sdn Bhd", "payment:cash": "yes", "payment:coins": "yes", "payment:touchngo": "yes", "payment:visa": "yes", "phone": "+603-2142 1136", "shop": "convenience", "short_name": "7-11", "website": "https://www.7eleven.com.my/"}}, {"type": "node", "id": 2941521213, "lat": 3.1561317, "lon": 101.700245, "tags": {"addr:housenumber": "29", "brand": "7-Eleven", "brand:wikidata": "Q259340", "brand:wikipedia": "en:7-Eleven", "currency:MYR": "yes", "name": "7-Eleven", "operator": "7-Eleven Malaysia Sdn Bhd", "payment:cash": "yes", "payment:coins": "yes", "payment:touchngo": "yes", "payment:visa": "yes", "phone": "+603-2142 1136", "shop": "convenience", "short_name": "7-11", "website": "https://www.7eleven.com.my/"}}, {"type": "node", "id": 2941526583, "lat": 3.1514755, "lon": 101.6980195, "tags": {"addr:housenumber": "55", "addr:street": "Jalan Ampang", "brand": "7-Eleven", "brand:wikidata": "Q259340", "brand:wikipedia": "en:7-Eleven", "currency:MYR": "yes", "name": "7-Eleven", "opening_hours": "24/7", "operator": "7-Eleven Malaysia Sdn Bhd", "payment:cash": "yes", "payment:coins": "yes", "payment:touchngo": "yes", "payment:visa": "yes", "phone": "+603-2142 1136", "shop": "convenience", "short_name": "7-11", "website": "https://www.7eleven.com.my/"}}, {"type": "node", "id": 2941526586, "lat": 3.1510047, "lon": 101.6978953, "tags": {"amenity": "restaurant", "name": "Ma Curry House", "name:en": "Ma Curry House"}}, {"type": "node", "id": 2941844786, "lat": 3.1602797, "lon": 101.6968765, "tags": {"addr:city": "Kuala Lumpur", "addr:housenumber": "316", "addr:postcode": "50100", "addr:street": "Jalan Tuanku Abdul Rahman", "internet_access": "wlan", "internet_access:fee": "no", "name": "The Chow Kit", "name:en": "The Chow Kit", "tourism": "hotel"}}, {"type": "node", "id": 2980371654, "lat": 3.1450281, "lon": 101.6958385, "tags": {"addr:city": "Kuala Lumpur", "addr:housenumber": "44, 46", "addr:postcode": "50050", "addr:street": "Jalan Hang Kasturi", "amenity": "restaurant", "name": "Yusoof Dan Zakhir", "name:en": "Yusoof Dan Zakhir", "phone": "+60320268685"}}, {"type": "node", "id": 3076201450, "lat": 3.1470748, "lon": 101.7114291, "tags": {"addr:city": "Kuala Lumpur", "brand": "WOLO", "name": "WOLO Bukit Bintang", "name:en": "WOLO Bukit Bintang", "name:ms": "WOLO Bukit Bintang", "tourism": "hotel", "website": "https://www.thewolo.com/"}}, {"type": "node", "id": 3076207633, "lat": 3.1473219, "lon": 101.7132001, "tags": {"addr:city": "Kuala Lumpur", "addr:housename": "Fashion88", "amenity": "restaurant", "cuisine": "sushi", "name": "Sushi Zanmai", "name:en": "Sushi Zanmai"}}, {"type": "node", "id": 3081500499, "lat": 3.1742052, "lon": 101.6906406, "tags": {"amenity": "restaurant", "cuisine": "indian", "name": "K R Mani Curry House", "name:en": "K R Mani Curry House"}}, {"type": "node", "id": 3092075897, "lat": 3.1391793, "lon": 101.7099536, "tags": {"addr:city": "Kuala Lumpur", "addr:housenumber": "300", "addr:postcode": "55100", "addr:street": "Jalan Pudu", "name": "Orkid Hills Hotel", "name:en": "Orkid Hills Hotel", "tourism": "hotel"}}, {"type": "node", "id": 3092081593, "lat": 3.1404568, "lon": 101.7060588, "tags": {"brand": "7-Eleven", "brand:wikidata": "Q259340", "brand:wikipedia": "en:7-Eleven", "currency:MYR": "yes", "name": "7-Eleven", "operator": "7-Eleven Malaysia Sdn Bhd", "payment:cash": "yes", "payment:coins": "yes", "payment:touchngo": "yes", "payment:visa": "yes", "phone": "+603-2142 1136", "shop": "convenience", "short_name": "7-11", "website": "https://www.7eleven.com.my/"}}, {"type": "node", "id": 3118284179, "lat": 3.1438532, "lon": 101.698736, "tags": {"name": "The 5 Elements", "tourism": "hotel"}}, {"type": "node", "id": 3118284180, "lat": 3.1439718, "lon": 101.6988129, "tags": {"bus": "yes", "highway": "bus_stop", "name": "Kompleks Selangor", "operator": "Han Travel", "public_transport": "platform"}}, {"type": "node", "id": 3235634532, "lat": 3.1683867, "lon": 101.7025464, "tags": {"name": "D\u2019Re Shop", "shop": "convenience"}}, {"type": "node", "id": 3291844039, "lat": 3.1553697, "lon": 101.696108, "tags": {"addr:housenumber": "158", "addr:street": "Jalan Tuanku Abdul Rahman", "amenity": "restaurant", "name": "Restoran Insaf Baru"}}, {"type": "node", "id": 3291844040, "lat": 3.1547458, "lon": 101.6962278, "tags": {"name": "Katel Kuala Lumpur", "tourism": "hotel"}}, {"type": "node", "id": 3291844981, "lat": 3.1515005, "lon": 101.6952746, "tags": {"addr:housenumber": "12", "addr:street": "Jalan Tuanku Abdul Rahman", "name": "Swiss Hotel", "name:en": "Swiss Hotel", "name:zh": "\u745e\u58eb\u9152\u5e97", "tourism": "hotel"}}, {"type": "node", "id": 3336036076, "lat": 3.1489596, "lon": 101.6972221, "tags": {"bench": "no", "bin": "no", "bus": "yes", "departures_board": "no", "highway": "bus_stop", "lit": "no", "name": "BSN Lebuh Ampang", "name:ms": "BSN Lebuh Ampang", "operator": "Rapid KL", "public_transport": "platform", "ref": "KL117", "route_ref": "151;171;173;202;220;250;300;303", "shelter": "no", "tactile_paving": "no", "wheelchair": "no"}}, {"type": "node", "id": 3338501983, "lat": 3.1477351, "lon": 101.6934234, "tags": {"country": "MY", "description": "Second tallest flagpole in Malaysia after Sarawak Flagpole. Made in North Korea.", "flag:name": "Malaysia", "flag:type": "national", "flag:wikidata": "Q168935", "flagpole": "freestanding", "height": "95", "image": "https://photos.app.goo.gl/EsSFCwjCJfso9V6o8", "lit": "yes", "man_made": "flagpole", "name": "Merdeka Square Flagpole", "name:en": "Merdeka Square Flagpole", "name:ja": "\u56fd\u65d7", "name:pl": "Plac Flagi", "name:zh": "\u72ec\u7acb\u5e7f\u573a\u65d7\u6746", "name:zh-Hans": "\u72ec\u7acb\u5e7f\u573a\u65d7\u6746", "name:zh-Hant": "\u7368\u7acb\u5ee3\u5834\u65d7\u687f", "subject": "Malaysia", "subject:wikidata": "Q833", "tourism": "attraction", "wikimedia_commons": "Category:Flagpole of Dataran Merdeka"}}, {"type": "node", "id": 3340727305, "lat": 3.1532602, "lon": 101.705661, "tags": {"name": "Pacific Regency Hotel Apartments", "name:en": "Pacific Regency Hotel Apartments", "name:zh": "\u5409\u9686\u5761\u592a\u5e73\u6d0b\u4e3d\u6676\u9152\u5e97", "name:zh-Hans": "\u5409\u9686\u5761\u592a\u5e73\u6d0b\u4e3d\u6676\u9152\u5e97", "name:zh-Hant": "\u5409\u9686\u5761\u592a\u5e73\u6d0b\u9e97\u6676\u9152\u5e97", "tourism": "hotel", "website": "pacific-regency.com"}}, {"type": "node", "id": 3446379359, "lat": 3.1547126, "lon": 101.6977425, "tags": {"addr:city": "Kuala Lumpur", "addr:housenumber": "16", "addr:street": "Jalan Bunus 6", "amenity": "restaurant", "cuisine": "indian", "name": "RSMY"}}, {"type": "node", "id": 3488150392, "lat": 3.1562363, "lon": 101.7029801, "tags": {"bench": "yes", "bin": "yes", "bus": "yes", "highway": "bus_stop", "name": "LRT Dang Wangi", "public_transport": "platform", "ref": "KL25", "route_ref": "300;303;BLUE", "shelter": "yes"}}, {"type": "node", "id": 3488152894, "lat": 3.1535001, "lon": 101.7008987, "tags": {"alt_name": "Jakel Mall (Opp)", "bus": "yes", "highway": "bus_stop", "name": "SMK Convent Bukit Nanas", "operator": "Rapid KL", "public_transport": "platform", "ref": "KL26", "route_ref": "BLUE;300;303"}}, {"type": "node", "id": 3505993393, "lat": 3.1497502, "lon": 101.7050114, "tags": {"amenity": "restaurant", "cuisine": "international", "name": "Cosmic", "smoking": "outside", "source": "Local knowledge"}}, {"type": "node", "id": 3535341980, "lat": 3.1678136, "lon": 101.6936258, "tags": {"addr:city": "Kuala Lumpur", "addr:housenumber": "107", "addr:postcode": "50350", "addr:street": "Jalan 1/64D", "name": "RentNow Apartment Rental", "name:en": "RentNow Apartment Rental", "note": "Bistari Short Term Apartment Rental", "phone": "+60 3 4043 6090", "tourism": "hotel", "website": "http://www.rentnow.my", "wheelchair": "limited"}}, {"type": "node", "id": 3645616837, "lat": 3.1502808, "lon": 101.7164495, "tags": {"name": "Rumah Penghulu Abu Seman", "name:ms": "Rumah Penghulu Abu Seman", "name:zh": "\u963f\u5e03\u745f\u66fc\u914b\u957f\u6545\u5c45", "name:zh-Hans": "\u963f\u5e03\u745f\u66fc\u914b\u957f\u6545\u5c45", "name:zh-Hant": "\u963f\u5e03\u745f\u66fc\u914b\u9577\u6545\u5c45", "opening_hours": "Mo-Fr 10:00-16:00", "tourism": "attraction"}}, {"type": "node", "id": 3696262772, "lat": 3.1492916, "lon": 101.7019721, "tags": {"alt_name": "Hutan Simpan Bukit Nenas", "bench": "yes", "bus": "yes", "highway": "bus_stop", "name": "Wisma Budiman", "operator": "Rapid KL", "passenger_information_display": "yes", "public_transport": "platform", "ref": "KL13", "route_ref": "400;420;421;580;PURPLE", "shelter": "yes"}}, {"type": "node", "id": 3696262776, "lat": 3.1490192, "lon": 101.7004892, "tags": {"bus": "yes", "highway": "bus_stop", "name": "Menara Olympia", "operator": "Rapid KL", "public_transport": "platform", "ref": "KL16", "route_ref": "PURPLE", "source": "data.gov.my"}}, {"type": "node", "id": 3696262777, "lat": 3.148382, "lon": 101.6988311, "tags": {"bus": "yes", "highway": "bus_stop", "name": "Muzium Telekom", "name:ms": "Muzium Telekom", "public_transport": "platform", "ref": "KL15", "route_ref": "RED"}}, {"type": "node", "id": 3696263038, "lat": 3.1486698, "lon": 101.7001723, "tags": {"bus": "yes", "highway": "bus_stop", "name": "Menara Olympia", "operator": "Rapid KL", "public_transport": "platform", "ref": "KL14", "route_ref": "400;420;421;580;PURPLE"}}, {"type": "node", "id": 3729072551, "lat": 3.1480341, "lon": 101.7115344, "tags": {"addr:city": "Kuala Lumpur", "addr:housenumber": "42", "addr:postcode": "50250", "addr:street": "Jalan Sultan Ismail", "name": "Le Apple Boutique", "name:en": "Le Apple Boutique", "phone": "+6 03 2141 5604", "tourism": "hotel", "website": "http://www.leapplehotel.com.my/"}}, {"type": "node", "id": 3729080812, "lat": 3.1576778, "lon": 101.7118211, "tags": {"amenity": "restaurant", "brand": "Nando's", "brand:wikidata": "Q3472954", "brand:wikipedia": "en:Nando's", "cuisine": "chicken;portuguese", "name": "Nando's", "website": "https://nandos.com.my/"}}, {"type": "node", "id": 3742133386, "lat": 3.1537964, "lon": 101.7157615, "tags": {"bus": "yes", "highway": "bus_stop", "name": "Exxon Mobil", "name:en": "Exxon Mobil", "name:ms": "Exxon Mobil", "operator": "Rapid KL;DBKL", "public_transport": "platform", "ref": "KL89", "route_ref": "402;GREEN"}}, {"type": "node", "id": 3742133387, "lat": 3.1542257, "lon": 101.7173241, "tags": {"bus": "yes", "highway": "bus_stop", "name": "The Binjai", "name:en": "The Binjai", "operator": "Rapid KL", "public_transport": "platform", "ref": "KL1951", "route_ref": "402"}}, {"type": "node", "id": 3742150292, "lat": 3.1579912, "lon": 101.718108, "tags": {"amenity": "restaurant", "cuisine": "japanese", "name": "Kampachi", "name:en": "Kampachi"}}, {"type": "node", "id": 3788466249, "lat": 3.1507057, "lon": 101.7129496, "tags": {"addr:city": "Kuala Lumpur", "addr:housenumber": "90", "addr:postcode": "50200", "addr:street": "Jalan Raja Chulan", "air_conditioning": "yes", "amenity": "restaurant", "cuisine": "chinese", "description": "The oldest family-owned Hakka Restaurant in Kuala Lumpur. Relatively good online ratings.", "name": "Hakka", "name:en": "Hakka", "name:zh": "\u8fce\u5ba2\u697c", "name:zh-Hans": "\u8fce\u5ba2\u697c", "name:zh-Hant": "\u8fce\u5ba2\u6a13", "opening_hours": "12:00-15:00,18:00-23:30", "outdoor_seating": "yes", "phone": "+60 3 2143 1908", "smoking": "outside", "start_date": "1956", "website": "https://www.hakkakl.com/", "wheelchair": "yes"}}, {"type": "node", "id": 3905729968, "lat": 3.142744, "lon": 101.696587, "tags": {"addr:city": "Kuala Lumpur", "addr:housenumber": "210", "addr:street": "Jalan Tun H S Lee", "brand": "7-Eleven", "brand:wikidata": "Q259340", "brand:wikipedia": "en:7-Eleven", "currency:MYR": "yes", "name": "7-Eleven", "opening_hours": "24/7", "operator": "7-Eleven Malaysia Sdn Bhd", "payment:cash": "yes", "payment:coins": "yes", "payment:touchngo": "yes", "payment:visa": "yes", "phone": "+603-2142 1136", "shop": "convenience", "short_name": "7-11", "website": "https://www.7eleven.com.my/"}}, {"type": "node", "id": 3908795198, "lat": 3.1589121, "lon": 101.7145698, "tags": {"amenity": "restaurant", "name": "Selera Ampang", "name:ms": "Selera Ampang"}}, {"type": "node", "id": 3908795217, "lat": 3.1589723, "lon": 101.714663, "tags": {"brand": "7-Eleven", "brand:wikidata": "Q259340", "brand:wikipedia": "en:7-Eleven", "currency:MYR": "yes", "name": "7-Eleven", "operator": "7-Eleven Malaysia Sdn Bhd", "payment:cash": "yes", "payment:coins": "yes", "payment:touchngo": "yes", "payment:visa": "yes", "phone": "+603-2142 1136", "shop": "convenience", "short_name": "7-11", "website": "https://www.7eleven.com.my/"}}, {"type": "node", "id": 3941157301, "lat": 3.1460451, "lon": 101.7012421, "tags": {"name": "Avaria", "tourism": "hotel"}}, {"type": "node", "id": 4058148340, "lat": 3.1452448, "lon": 101.7068708, "tags": {"name": "12Fly Hotel", "name:en": "12Fly Hotel", "tourism": "hotel"}}, {"type": "node", "id": 4058151896, "lat": 3.1456292, "lon": 101.706859, "tags": {"amenity": "restaurant", "name": "Muar", "name:en": "Muar", "name:ms": "Muar"}}, {"type": "node", "id": 4058166365, "lat": 3.1451641, "lon": 101.7077222, "tags": {"brand": "Travelodge", "brand:wikidata": "Q24997583", "brand:wikipedia": "en:Travelodge Australia", "name": "Travelodge Bukit Bintang", "name:en": "Travelodge Bukit Bintang", "tourism": "hotel", "website": "https://www.travelodgehotels.asia/hotel/travelodge-bukit-bintang/"}}, {"type": "node", "id": 4058166367, "lat": 3.1460943, "lon": 101.7082968, "tags": {"name": "The Yard Boutique Hotel", "phone": "+60 3 2141 1017", "tourism": "hotel", "website": "http://www.theyard.com.my/"}}, {"type": "node", "id": 4058187840, "lat": 3.1436494, "lon": 101.7075253, "tags": {"name": "Emerald", "name:en": "Emerald", "tourism": "hotel"}}, {"type": "node", "id": 4058230505, "lat": 3.1426217, "lon": 101.708167, "tags": {"brand": "Metro", "name": "Metro", "name:en": "Metro", "name:ms": "Metro", "tourism": "hotel"}}, {"type": "node", "id": 4058230530, "lat": 3.1432529, "lon": 101.7078787, "tags": {"name": "Daffodils Park", "name:en": "Daffodils Park", "stars": "2", "tourism": "hotel", "website": "http://daffodils-park-kl.kualalumpurhoteltour.com/"}}, {"type": "node", "id": 4058236474, "lat": 3.1436253, "lon": 101.7081094, "tags": {"brand": "Sky", "name": "Sky", "name:en": "Sky", "tourism": "hotel"}}, {"type": "node", "id": 4058243965, "lat": 3.1439224, "lon": 101.7078439, "tags": {"addr:country": "MY", "branch": "Bukit Bintang", "brand": "99 Speedmart", "brand:wikidata": "Q62075061", "currency:MYR": "yes", "internet_access": "wlan", "name": "99 Speedmart", "operator": "99 Speed Mart Sdn Berhad", "payment:coins": "yes", "payment:mastercard": "yes", "payment:notes": "yes", "payment:touchngo_ewallet": "yes", "payment:visa": "yes", "phone": "+603-3362 6863", "shop": "supermarket", "smoking": "no", "website": "https://www.99speedmart.com.my/Store"}}, {"type": "node", "id": 4058243967, "lat": 3.1435831, "lon": 101.7077, "tags": {"name": "Alibaba", "name:en": "Alibaba", "tourism": "hotel"}}, {"type": "node", "id": 4058243968, "lat": 3.1435062, "lon": 101.7077474, "tags": {"name": "Golden Palace", "name:en": "Golden Palace", "tourism": "hotel"}}, {"type": "node", "id": 4109322290, "lat": 3.1596547, "lon": 101.7146181, "tags": {"addr:housenumber": "160", "addr:street": "Jalan Ampang", "internet_access": "wlan", "name": "Le Apple Boutique Hotel KLCC", "name:en": "Le Apple Boutique Hotel KLCC", "phone": "+60321793777", "tourism": "hotel", "website": "www.leapple-klcc.com.my"}}, {"type": "node", "id": 4114569571, "lat": 3.1428855, "lon": 101.6995251, "tags": {"bus": "yes", "highway": "bus_stop", "public_transport": "platform"}}, {"type": "node", "id": 4130081389, "lat": 3.1452163, "lon": 101.6992626, "tags": {"addr:city": "Kuala Lumpur", "addr:street": "Jalan Pudu", "name": "Ancasa Hotel KL", "name:en": "Ancasa Hotel KL", "phone": "+60320266060", "tourism": "hotel", "website": "http://www.ancasahotels.com/my"}}, {"type": "node", "id": 4133876777, "lat": 3.1624708, "lon": 101.7012733, "tags": {"addr:city": "Kuala Lumpur", "addr:place": "Kampung Baru", "amenity": "restaurant", "cuisine": "malay", "name": "Nasi Lemak CT Garden", "opening_hours": "18:00-04:00"}}, {"type": "node", "id": 4133879829, "lat": 3.1464391, "lon": 101.6959811, "tags": {"addr:street": "Jalan Hang Kasturi", "amenity": "restaurant", "name": "Tajudin Nasi Beriani", "name:ms": "Tajudin Nasi Beriani"}}, {"type": "node", "id": 4154574889, "lat": 3.1492565, "lon": 101.7063706, "tags": {"addr:housenumber": "6", "addr:street": "Changkat Raja Chulan", "internet_access": "wlan", "internet_access:fee": "customers", "name": "Verdant Hill", "phone": "+603 2031 0360", "stars": "4", "tourism": "hotel", "website": "http://www.verdanthillhotel.com/"}}, {"type": "node", "id": 4183861307, "lat": 3.1621526, "lon": 101.6976127, "tags": {"addr:street": "Jalan Tuanku Abdul Rahman", "internet_access": "wlan", "name": "WP Hotel", "name:en": "WP Hotel", "stars": "4", "tourism": "hotel"}}, {"type": "node", "id": 4200042898, "lat": 3.1489528, "lon": 101.6981543, "tags": {"amenity": "restaurant", "cuisine": "malaysian", "name": "Kafe Kleptokrat"}}, {"type": "node", "id": 4200421393, "lat": 3.1462004, "lon": 101.7005116, "tags": {"addr:country": "MY", "brand": "99 Speedmart", "brand:wikidata": "Q62075061", "currency:MYR": "yes", "internet_access": "wlan", "name": "99 Speedmart", "payment:coins": "yes", "payment:mastercard": "yes", "payment:notes": "yes", "payment:touchngo_ewallet": "yes", "payment:visa": "yes", "phone": "+603-3362 6863", "shop": "supermarket", "smoking": "no", "website": "https://www.99speedmart.com.my/Store"}}, {"type": "node", "id": 4200450589, "lat": 3.1430231, "lon": 101.6985746, "tags": {"addr:housenumber": "40", "addr:street": "Jalan Sultan", "amenity": "restaurant", "cuisine": "chinese", "name": "West Lake"}}, {"type": "node", "id": 4201454589, "lat": 3.1603653, "lon": 101.7186555, "tags": {"bus": "yes", "highway": "bus_stop", "name": "Ampang Park", "name:en": "Ampang Park", "name:zh": "\u5b89\u90a6\u8d2d\u7269\u4e2d\u5fc3", "name:zh-Hans": "\u5b89\u90a6\u8d2d\u7269\u4e2d\u5fc3", "name:zh-Hant": "\u5b89\u90a6\u8cfc\u7269\u4e2d\u5fc3", "operator": "Rapid KL", "public_transport": "platform", "ref": "KL2306", "route_ref": "300;303", "shelter": "yes"}}, {"type": "node", "id": 4201454689, "lat": 3.159957, "lon": 101.719123, "tags": {"bench": "yes", "bin": "yes", "bus": "yes", "highway": "bus_stop", "name": "LRT Ampang Park (Opp)", "name:en": "LRT Ampang Park (Opp)", "operator": "Rapid KL", "public_transport": "platform", "ref": "KL91", "route_ref": "402;303", "shelter": "yes"}}, {"type": "node", "id": 4201801489, "lat": 3.1452217, "lon": 101.70462, "tags": {"bench": "yes", "bin": "yes", "bus": "yes", "departures_board": "realtime", "highway": "bus_stop", "lit": "yes", "name": "Hospital Thung Shin", "name:en": "Hospital Thung Shin", "name:ms": "Hospital Thung Shin", "name:zh": "\u540c\u5584\u533b\u9662", "name:zh-Hans": "\u540c\u5584\u533b\u9662", "name:zh-Hant": "\u540c\u5584\u91ab\u9662", "operator": "Rapid KL", "passenger_information_display": "yes", "public_transport": "platform", "ref": "KL119", "route_ref": "421;450;400;420", "route_ref:rapidkl": "U4500;U4210;U4200;U4000;U5800;U5900", "shelter": "yes", "source": "data.gov.my", "tactile_paving": "no"}}, {"type": "node", "id": 4201801589, "lat": 3.1456042, "lon": 101.7031348, "tags": {"amenity": "restaurant", "cuisine": "chinese", "name": "Jiu Pin"}}, {"type": "node", "id": 4201801689, "lat": 3.1461411, "lon": 101.7007999, "tags": {"addr:country": "MY", "addr:housenumber": "22", "addr:street": "Jalan Pudu", "brand": "KK Super Mart", "brand:wikidata": "Q95721993", "name": "KK Super Mart", "operator": "KK Supermart & Superstore Sdn Bhd", "shop": "convenience", "short_name": "KK", "website": "https://kkgroup.my/kk-super-mart"}}, {"type": "node", "id": 4208328492, "lat": 3.152352, "lon": 101.6996731, "tags": {"bus": "yes", "highway": "bus_stop", "name": "Menara AIA", "name:ms": "Menara AIA", "old_name": "AIA", "operator": "Rapid KL", "public_transport": "platform", "ref": "KL27", "route_ref": "300;303"}}, {"type": "node", "id": 4208379192, "lat": 3.1589209, "lon": 101.7122927, "tags": {"bench": "yes", "bus": "yes", "highway": "bus_stop", "name": "KLCC (Utara)", "name:ms": "KLCC (Utara)", "operator": "Rapid KL;DBKL", "public_transport": "platform", "ref": "KL94", "route_ref": "300;302;303;402;GREEN", "shelter": "yes"}}, {"type": "node", "id": 4208379193, "lat": 3.1567482, "lon": 101.7054976, "tags": {"bench": "yes", "bin": "yes", "bus": "yes", "highway": "bus_stop", "lit": "yes", "name": "Berjaya Central Park / Renaissance Hotel", "name:en": "Berjaya Central Park / Renaissance Hotel", "old_name": "Renaissance Hotel (Opp)", "operator": "Rapid KL;DBKL", "public_transport": "platform", "ref": "KL99", "route_ref": "300;303;GREEN", "shelter": "yes"}}, {"type": "node", "id": 4211714691, "lat": 3.1617227, "lon": 101.719828, "tags": {"addr:city": "Kuala Lumpur", "addr:housenumber": "348", "addr:postcode": "50400", "addr:street": "Jalan Tun Razak", "brand": "DoubleTree", "brand:wikidata": "Q2504643", "brand:wikipedia": "en:DoubleTree", "contact:facebook": "https://www.facebook.com/DoubletreeKL?ref=br_rs", "contact:instagram": "https://www.instagram.com/doubletreekl/?hl=en", "contact:linkedin": "https://www.linkedin.com/in/doubletree-by-hilton-kuala-lumpur-2a8898150", "email": "Kuldt.DoubleTreekl@hilton.com", "fax": "+60-3-21727270", "name": "DoubleTree by Hilton Hotel Kuala Lumpur", "official_name": "DoubleTree by Hilton", "operator": "Hilton", "phone": "+60-3-21727272", "rooms": "538", "stars": "5", "tourism": "hotel", "website": "https://www.hilton.com/en/hotels/kuldtdi-doubletree-kuala-lumpur/", "wheelchair": "yes", "wikidata": "Q49393251"}}, {"type": "node", "id": 4215289289, "lat": 3.1716829, "lon": 101.6957368, "tags": {"addr:city": "Kuala Lumpur", "addr:housenumber": "9", "addr:postcode": "50400", "addr:street": "Jalan Lumut off Jalan Ipoh", "air_conditioning": "yes", "brand": "AC Hotel", "brand:wikidata": "Q5653536", "brand:wikipedia": "en:AC Hotels", "internet_access": "wlan", "name": "AC Hotel Kuala Lumpur", "rooms": "362", "tourism": "hotel"}}, {"type": "node", "id": 4217208789, "lat": 3.1564828, "lon": 101.7003022, "tags": {"addr:housenumber": "1", "addr:postcode": "50300", "addr:street": "Jalan Kamunting", "amenity": "restaurant", "cuisine": "chinese", "name": "Yut Kee", "name:zh": "\u9552\u8bb0\u8336\u9910\u9986", "opening_hours": "Tu-Su 08:00-16:30", "phone": "+60 3 2698 8108", "website": "https://yutkeerestaurant.beepit.com/"}}, {"type": "node", "id": 4220795294, "lat": 3.159306, "lon": 101.7122953, "tags": {"bus": "yes", "highway": "bus_stop", "name": "KLCC (Opp)", "name:en": "KLCC (Opp)", "operator": "Rapid KL", "public_transport": "platform", "ref": "KL2301", "route_ref": "300;303"}}, {"type": "node", "id": 4220795392, "lat": 3.1587507, "lon": 101.708746, "tags": {"bus": "yes", "highway": "bus_stop", "name": "Hotel Maya", "name:en": "Hotel Maya", "name:ms": "Hotel Maya", "public_transport": "platform", "ref": "KL2300"}}, {"type": "node", "id": 4226589896, "lat": 3.1465801, "lon": 101.7089249, "tags": {"name": "Melange Boutique Hotel", "phone": "+6032141 8828", "tourism": "hotel"}}, {"type": "node", "id": 4229103790, "lat": 3.16688, "lon": 101.6942269, "tags": {"name": "Caspo", "name:en": "Caspo", "tourism": "hotel"}}, {"type": "node", "id": 4229327189, "lat": 3.1430963, "lon": 101.7048793, "tags": {"addr:city": "Kuala Lumpur", "addr:housenumber": "15", "addr:postcode": "50150", "addr:street": "Jalan Sin Chew Kee", "amenity": "restaurant", "name": "Bol - Asian Reimagined", "phone": "+60102838869"}}, {"type": "node", "id": 4232426390, "lat": 3.1609552, "lon": 101.701628, "tags": {"amenity": "restaurant", "name": "Warong Mak Leha"}}, {"type": "node", "id": 4232936611, "lat": 3.1422553, "lon": 101.6978172, "tags": {"addr:housenumber": "121-123", "addr:postcode": "50000", "addr:street": "Jalan Petaling", "description": "From RM50 onwards. Good online ratings.", "internet_access": "wlan", "internet_access:fee": "no", "name": "Hotel Petaling", "phone": "+60 20789870", "stars": "1", "tourism": "hotel", "website": "http://www.petalinghotel.com/"}}, {"type": "node", "id": 4233033291, "lat": 3.1444541, "lon": 101.7145184, "tags": {"amenity": "restaurant", "name": "Sun Fong Baku teh", "name:en": "Sun Fong Baku teh", "name:zh": "\u65b0\u5cf0\u8089\u9aa8\u8336"}}, {"type": "node", "id": 4233033391, "lat": 3.1475625, "lon": 101.6979744, "tags": {"addr:housenumber": "23", "addr:postcode": "50050", "addr:street": "Jalan Tun Perak", "brand": "Arenaa Mountbatten Hotel", "email": "reservation@arenaamountbatten.com", "internet_access": "wlan", "name": "Arenaa Mountbatten Hotel", "name:en": "Arenaa Mountbatten Hotel", "opening_hours": "24/7", "phone": "+60320780808", "tourism": "hotel", "website": "www.arenaamountbatten.com"}}, {"type": "node", "id": 4238799691, "lat": 3.1440108, "lon": 101.695612, "tags": {"brand": "Travelodge", "brand:wikidata": "Q24997583", "brand:wikipedia": "en:Travelodge Australia", "name": "Travelodge City Centre", "name:en": "Travelodge City Centre", "name:zh": "\u5409\u9686\u5761\u57fa\u6b27\u9152\u5e97", "name:zh-Hans": "\u5409\u9686\u5761\u57fa\u6b27\u9152\u5e97", "name:zh-Hant": "\u5409\u9686\u5761\u57fa\u6b50\u9152\u5e97", "phone": "+60320322288", "stars": "3", "tourism": "hotel", "website": "http://www.travelodgecitycentre.com"}}, {"type": "node", "id": 4238875111, "lat": 3.1491, "lon": 101.711733, "tags": {"amenity": "restaurant", "cuisine": "japanese", "name": "Mitasu"}}, {"type": "node", "id": 4238875703, "lat": 3.144806, "lon": 101.719959, "tags": {"amenity": "restaurant", "cuisine": "cantonese", "name": "Noble House", "opening_hours": "11:00-15:30,18:00-22:30", "phone": "+60321458822", "website": "https://www.orientalrestaurants.com.my/noble-house/"}}, {"type": "node", "id": 4252273189, "lat": 3.1576424, "lon": 101.7008379, "tags": {"amenity": "restaurant", "name": "Restoran Golden Junction"}}, {"type": "node", "id": 4255810589, "lat": 3.1629127, "lon": 101.6961175, "tags": {"addr:housenumber": "290", "addr:street": "Jalan Raja Laut", "brand": "Aira Hotel", "name": "Aira Hotel", "name:en": "Aira Hotel", "tourism": "hotel"}}, {"type": "node", "id": 4264465010, "lat": 3.1427349, "lon": 101.6952619, "tags": {"bench": "yes", "bus": "yes", "highway": "bus_stop", "local_ref": "Platform B", "name": "Pasar Seni (Platform B1 - B2)", "name:en": "Pasar Seni (Platform B1 - B2)", "operator": "Rapid KL", "public_transport": "platform", "ref": "KL2214", "route_ref": "750", "shelter": "yes"}}, {"type": "node", "id": 4268200850, "lat": 3.1420379, "lon": 101.6980107, "tags": {"brand": "City Hotel", "internet_access": "wlan", "name": "City Hotel", "name:en": "City Hotel", "tourism": "hotel"}}, {"type": "node", "id": 4277481413, "lat": 3.1466393, "lon": 101.7003397, "tags": {"addr:housenumber": "102", "addr:postcode": "50200", "addr:street": "Jalan Pudu Lama", "air_conditioning": "yes", "amenity": "restaurant", "check_date": "2024-12-09", "cuisine": "indian", "diet:vegetarian": "yes", "internet_access": "no", "level": "0", "name": "Adyar Ananda Bhavan", "outdoor_seating": "yes", "payment:cash": "yes", "payment:credit_cards": "yes", "payment:debit_cards": "yes", "phone": "+60 3-2022 3378", "short_name": "A2B", "takeaway": "yes", "toilets:access": "customers", "wheelchair": "limited"}}, {"type": "node", "id": 4278009691, "lat": 3.142822, "lon": 101.6959358, "tags": {"amenity": "restaurant", "name": "Old Kasturi Kopitiam", "name:zh": "\u65b0\u661f\u5149\u8336\u9910\u5ba4", "old_name": "Restoran Zhing Kong;\u661f\u6c5f\u8336\u9910\u5ba4"}}, {"type": "node", "id": 4279912731, "lat": 3.1458458, "lon": 101.7019772, "tags": {"name": "Sakura Elite", "tourism": "hotel"}}, {"type": "node", "id": 4279912736, "lat": 3.1458682, "lon": 101.7025209, "tags": {"contact:mobile": "+60 3-2022 1866", "description": "Bad online reviews.", "name": "Kawana Tourist Inn", "name:en": "Kawana Tourist Inn", "tourism": "hotel"}}, {"type": "node", "id": 4279915234, "lat": 3.1468014, "lon": 101.7010946, "tags": {"addr:housenumber": "24", "addr:postcode": "50200", "addr:street": "Jalan Pudu Lama", "check_date": "2024-12-09", "email": "casavillalodge@yahoo.com", "name": "Casa Villa", "name:en": "Casa Villa", "name:ms": "Casa Villa", "phone": "+60 3-2022 0063", "tourism": "hotel", "website": "http://www.casavilla2u.com/"}}, {"type": "node", "id": 4279991386, "lat": 3.1441661, "lon": 101.6986988, "tags": {"name": "Nan Yeang", "name:en": "Nan Yeang", "tourism": "hotel"}}, {"type": "node", "id": 4280013143, "lat": 3.1450044, "lon": 101.6987178, "tags": {"name": "Soho Town", "name:en": "Soho Town", "phone": "+60 32031 8133", "tourism": "hotel", "website": "sohotownhotel.com"}}, {"type": "node", "id": 4280013146, "lat": 3.1451961, "lon": 101.6984118, "tags": {"facebook": "https://www.facebook.com/Hotel-Allexsis-569740596425118", "name": "Allexsis", "phone": "+60 320 220 129", "tourism": "hotel"}}, {"type": "node", "id": 4280013149, "lat": 3.1451711, "lon": 101.6979953, "tags": {"name": "Seven Nite", "tourism": "hotel"}}, {"type": "node", "id": 4280013150, "lat": 3.1452057, "lon": 101.6977695, "tags": {"name": "Dragon Inn", "tourism": "hotel"}}, {"type": "node", "id": 4280013152, "lat": 3.1451887, "lon": 101.6980388, "tags": {"addr:country": "MY", "branch": "Jalan Tun Tan Cheng Lock", "brand": "99 Speedmart", "brand:wikidata": "Q62075061", "currency:MYR": "yes", "fixme": "Check whether it still exist or not", "internet_access": "wlan", "name": "99 Speedmart", "operator": "99 Speed Mart Sdn Berhad", "payment:coins": "yes", "payment:mastercard": "yes", "payment:notes": "yes", "payment:touchngo_ewallet": "yes", "payment:visa": "yes", "phone": "+603-3362 6863", "shop": "supermarket", "smoking": "no", "website": "https://www.99speedmart.com.my/Store"}}, {"type": "node", "id": 4282400391, "lat": 3.1508178, "lon": 101.7120802, "tags": {"brand": "7-Eleven", "brand:wikidata": "Q259340", "brand:wikipedia": "en:7-Eleven", "currency:MYR": "yes", "name": "7-Eleven", "opening_hours": "24/7", "operator": "7-Eleven Malaysia Sdn Bhd", "payment:cash": "yes", "payment:coins": "yes", "payment:touchngo": "yes", "payment:visa": "yes", "phone": "+603-2142 1136", "shop": "convenience", "short_name": "7-11", "website": "https://www.7eleven.com.my/"}}, {"type": "node", "id": 4282405796, "lat": 3.1477849, "lon": 101.7108461, "tags": {"bench": "yes", "bin": "yes", "bus": "yes", "departures_board": "yes", "highway": "bus_stop", "lit": "yes", "name": "MRT Bukit Bintang/HSBC", "name:en": "MRT Bukit Bintang/HSBC", "name:ms": "MRT Bukit Bintang/HSBC", "operator": "Rapid KL;DBKL", "passenger_information_display": "yes", "public_transport": "platform", "ref": "KL86", "route_ref": "400;420;421;580;BLUE;GREEN;PURPLE", "shelter": "yes"}}, {"type": "node", "id": 4282462893, "lat": 3.1453767, "lon": 101.7097017, "tags": {"addr:city": "Kuala Lumpur", "addr:country": "MY", "addr:postcode": "55100", "addr:street": "Jalan Bukit Bintang", "branch": "Bukit Bintang", "brand": "KK Super Mart", "brand:wikidata": "Q95721993", "name": "KK Super Mart", "operator": "KK Supermart & Superstore Sdn Bhd", "ref": "BB", "shop": "convenience", "short_name": "KK", "website": "https://kkgroup.my/kk-super-mart"}}, {"type": "node", "id": 4282463791, "lat": 3.1480011, "lon": 101.713539, "tags": {"bus": "yes", "highway": "bus_stop", "name": "Pavilion", "name:en": "Pavilion", "name:ms": "Pavilion", "old_name": "Pavilion (Timur)", "operator": "DBKL", "public_transport": "platform", "ref": "KL84", "route_ref": "PURPLE;GREEN;BLUE"}}, {"type": "node", "id": 4282463792, "lat": 3.1579174, "lon": 101.6945219, "tags": {"bench": "yes", "bin": "yes", "bus": "yes", "highway": "bus_stop", "name": "Medan Mara", "name:ms": "Medan Mara", "operator": "Rapid KL;Selangor Omnibus;DBKL", "public_transport": "platform", "ref": "KL40", "route_ref": "100;103;104;107;120;151;171;173;180;190;202;220;250", "shelter": "yes"}}, {"type": "node", "id": 4282470794, "lat": 3.1551799, "lon": 101.6963529, "tags": {"bench": "no", "bin": "no", "bus": "yes", "highway": "bus_stop", "name": "Globe KL", "name:zh": "\u73af\u7403\u5e03\u5e84", "operator": "Rapid KL;MARA Liner;Selangor Omnibus;DBKL", "public_transport": "platform", "ref": "KL37", "route_ref": "100;103;104;107;120;150;151;171;173;180;190;202;220;250", "shelter": "no"}}, {"type": "node", "id": 4282511392, "lat": 3.1454112, "lon": 101.7097484, "tags": {"brand": "7-Eleven", "brand:wikidata": "Q259340", "brand:wikipedia": "en:7-Eleven", "currency:MYR": "yes", "name": "7-Eleven", "operator": "7-Eleven Malaysia Sdn Bhd", "payment:cash": "yes", "payment:coins": "yes", "payment:touchngo": "yes", "payment:visa": "yes", "phone": "+603-2142 1136", "shop": "convenience", "short_name": "7-11", "website": "https://www.7eleven.com.my/"}}, {"type": "node", "id": 4282570191, "lat": 3.1456048, "lon": 101.7100462, "tags": {"name": "Thai Street Mart", "shop": "convenience"}}, {"type": "node", "id": 4282570193, "lat": 3.14694, "lon": 101.69683, "tags": {"bench": "yes", "bin": "yes", "bus": "yes", "highway": "bus_stop", "name": "Bangunan Maybank", "name:ms": "Bangunan Maybank", "operator": "Rapid KL", "passenger_information_display": "yes", "public_transport": "platform", "ref": "KL103", "route_ref": "151;190", "shelter": "yes"}}, {"type": "node", "id": 4282570194, "lat": 3.1476965, "lon": 101.710838, "tags": {"addr:city": "Kuala Lumpur", "addr:country": "MY", "addr:postcode": "50250", "addr:street": "Jalan Sultan Ismail", "branch": "Jalan Sultan Ismail", "brand": "KK Super Mart", "brand:wikidata": "Q95721993", "name": "KK Super Mart", "operator": "KK Supermart & Superstore Sdn Bhd", "ref": "SIM", "shop": "convenience", "short_name": "KK", "website": "https://kkgroup.my/kk-super-mart"}}, {"type": "node", "id": 4282570195, "lat": 3.1452717, "lon": 101.6981892, "tags": {"bus": "yes", "highway": "bus_stop", "name": "Kota Raya", "operator": "Rapid KL", "public_transport": "platform", "ref": "KL108", "route_ref": "851;180;PURPLE", "shelter": "yes"}}, {"type": "node", "id": 4282573789, "lat": 3.150829, "lon": 101.707019, "tags": {"bus": "yes", "highway": "bus_stop", "name": "The Weld", "operator": "Rapid KL", "public_transport": "platform", "ref": "KL19", "route_ref": "PURPLE"}}, {"type": "node", "id": 4282573790, "lat": 3.147564, "lon": 101.710877, "tags": {"addr:city": "Kuala Lumpur", "addr:country": "MY", "addr:suburb": "Bukit Bintang", "brand": "7-Eleven", "brand:wikidata": "Q259340", "brand:wikipedia": "en:7-Eleven", "currency:MYR": "yes", "level": "0", "name": "7-Eleven", "operator": "7-Eleven Malaysia Sdn Bhd", "payment:cash": "yes", "payment:coins": "yes", "payment:touchngo": "yes", "payment:visa": "yes", "phone": "+60 3-2142 1136", "shop": "convenience", "short_name": "7-11", "website": "https://www.7eleven.com.my/", "wheelchair": "limited"}}, {"type": "node", "id": 4282575889, "lat": 3.1504185, "lon": 101.7091596, "tags": {"bus": "yes", "highway": "bus_stop", "name": "Wisma Foo Yong", "public_transport": "platform", "ref": "KL21", "route_ref": "PURPLE"}}, {"type": "node", "id": 4282577989, "lat": 3.157889, "lon": 101.696133, "tags": {"bench": "yes", "bin": "yes", "bus": "yes", "highway": "bus_stop", "name": "Kompleks Pertama", "operator": "Rapid KL;MARA Liner;Selangor Omnibus;DBKL", "public_transport": "platform", "ref": "KL36", "route_ref": "100;103;104;107;120;150;151;171;173;180;190;202;220;250;RED", "route_ref:rapidkl": "U2200;U1910;U1800;U1730;S0080;U1700;U1710;U1720;U2000;U2020;U2500", "shelter": "yes", "source": "data.gov.my"}}, {"type": "node", "id": 4282577990, "lat": 3.1491137, "lon": 101.6944253, "tags": {"bus": "yes", "highway": "bus_stop", "name": "Dataran Merdeka", "name:ms": "Dataran Merdeka", "operator": "Rapid KL;DBKL", "public_transport": "platform", "ref": "KL114", "route_ref": "151;170;171;173;190;191;200;220;250;RED", "source": "data.gov.my"}}, {"type": "node", "id": 4282578389, "lat": 3.1392227, "lon": 101.6929595, "tags": {"bus": "yes", "highway": "bus_stop", "name": "KTM Kuala Lumpur", "name:en": "KTM Kuala Lumpur", "name:ms": "KTM Kuala Lumpur", "name:zh": "\u5409\u9686\u5761\u7ad9", "name:zh-Hans": "\u5409\u9686\u5761\u7ad9", "name:zh-Hant": "\u5409\u9686\u5761\u7ad9", "operator": "DBKL", "public_transport": "platform", "ref": "KL1093", "route_ref": "RED"}}, {"type": "node", "id": 4283481889, "lat": 3.1472239, "lon": 101.693407, "tags": {"contact:instagram": "https://www.instagram.com/klcitygallery/", "description": "Interesting model of city on the first floor", "fee": "no", "internet_access": "wlan", "internet_access:fee": "no", "name": "Kuala Lumpur City Gallery", "name:en": "Kuala Lumpur City Gallery", "name:hi": "\u0915\u0941\u0906\u0932\u093e\u0932\u092e\u094d\u092a\u0941\u0930 \u0917\u0948\u0932\u0930\u0940", "name:ms": "Galeri Kuala Lumpur", "name:pl": "Galeria Miejska", "name:zh": "\u5409\u9686\u5761\u57ce\u5e02\u9986", "name:zh-Hans": "\u5409\u9686\u5761\u57ce\u5e02\u9986", "name:zh-Hant": "\u5409\u9686\u5761\u57ce\u5e02\u9928", "opening_hours": "09:00-18:30; Tu off", "tourism": "museum", "website": "http://www.klcitygallery.com.my/", "wikidata": "Q66041057", "wikimedia_commons": "Category:Kuala Lumpur City Gallery"}}, {"type": "node", "id": 4286639512, "lat": 3.1526895, "lon": 101.6971419, "tags": {"name": "Surya", "tourism": "hotel"}}, {"type": "node", "id": 4286639513, "lat": 3.1525861, "lon": 101.6970905, "tags": {"name": "Palace", "tourism": "hotel"}}, {"type": "node", "id": 4286639514, "lat": 3.1530049, "lon": 101.6972105, "tags": {"name": "MK Inn Hotel", "phone": "+60 326 946 211", "tourism": "hotel", "website": "https://macktzcomfortinn.com/hotel/hotel-mackt-comfort-inn/"}}, {"type": "node", "id": 4286650813, "lat": 3.154009, "lon": 101.6974313, "tags": {"name": "Metrostar", "tourism": "hotel"}}, {"type": "node", "id": 4294514314, "lat": 3.1429585, "lon": 101.7088789, "tags": {"amenity": "restaurant", "name": "Sisha's Place", "name:en": "Sisha's Place"}}, {"type": "node", "id": 4306442594, "lat": 3.144891, "lon": 101.7079037, "tags": {"amenity": "restaurant", "cuisine": "chinese;seafood;chicken", "description": "Famous for their chicken wings.", "name": "Wong Ah Wah", "name:en": "Wong Ah Wah", "opening_hours": "Tu-Su 17:00-05:00", "outdoor_seating": "yes"}}, {"type": "node", "id": 4306876489, "lat": 3.1432705, "lon": 101.7076608, "tags": {"addr:housenumber": "180", "addr:postcode": "55100", "addr:street": "Jalan Pudu", "brand": "Simms Boutique Hotel", "email": "simmshotel@gmail.com", "internet_access": "wlan", "name": "Simms Boutique Hotel", "name:en": "Simms Boutique Hotel", "phone": "60321451180", "tourism": "hotel", "website": "www.simmshotel.com.my"}}, {"type": "node", "id": 4312018193, "lat": 3.148772, "lon": 101.6972123, "tags": {"addr:housenumber": "47", "addr:street": "Leboh Ampang", "amenity": "restaurant", "cuisine": "indian", "name": "Anjappar", "name:en": "Anjappar"}}, {"type": "node", "id": 4313242789, "lat": 3.1540114, "lon": 101.7064648, "tags": {"amenity": "restaurant", "internet_access": "wlan", "name": "The Bean Belt", "name:en": "The Bean Belt"}}, {"type": "node", "id": 4313242989, "lat": 3.1477092, "lon": 101.707823, "tags": {"amenity": "restaurant", "cuisine": "burger;indian", "name": "Sutraa"}}, {"type": "node", "id": 4313906610, "lat": 3.1561496, "lon": 101.6969515, "tags": {"addr:city": "Kuala Lumpur", "addr:postcode": "50100", "addr:street": "Jalan Dang Wangi", "name": "The Grand Campbell", "tourism": "hotel"}}, {"type": "node", "id": 4316896990, "lat": 3.1427075, "lon": 101.6977405, "tags": {"addr:country": "MY", "brand": "KK Super Mart", "brand:wikidata": "Q95721993", "currency:MYR": "yes", "name": "KK Super Mart", "opening_hours": "24/7", "operator": "KK Supermart & Superstore Sdn Bhd", "payment:cash": "yes", "payment:coins": "yes", "payment:touchngo": "yes", "payment:visa": "yes", "phone": "+603-2142 1136", "shop": "convenience", "short_name": "KK", "website": "https://kkgroup.my/kk-super-mart"}}, {"type": "node", "id": 4318912191, "lat": 3.1431876, "lon": 101.7094948, "tags": {"brand": "7-Eleven", "brand:wikidata": "Q259340", "brand:wikipedia": "en:7-Eleven", "currency:MYR": "yes", "name": "7-Eleven", "opening_hours": "24/7", "operator": "7-Eleven Malaysia Sdn Bhd", "payment:cash": "yes", "payment:coins": "yes", "payment:touchngo": "yes", "payment:visa": "yes", "phone": "+603-2142 1136", "shop": "convenience", "short_name": "7-11", "website": "https://www.7eleven.com.my/"}}, {"type": "node", "id": 4319117889, "lat": 3.153826, "lon": 101.7114812, "tags": {"amenity": "restaurant", "name": "Cedar on 15"}}, {"type": "node", "id": 4319117989, "lat": 3.158483, "lon": 101.7118871, "tags": {"amenity": "restaurant", "name": "Mama San", "name:en": "Mama San"}}, {"type": "node", "id": 4319117990, "lat": 3.1567627, "lon": 101.7119661, "tags": {"amenity": "restaurant", "name": "Madam Kwan's"}}, {"type": "node", "id": 4321138090, "lat": 3.1392775, "lon": 101.6968945, "tags": {"brand": "7-Eleven", "brand:wikidata": "Q259340", "brand:wikipedia": "en:7-Eleven", "currency:MYR": "yes", "name": "7-Eleven", "opening_hours": "24/7", "operator": "7-Eleven Malaysia Sdn Bhd", "payment:cash": "yes", "payment:coins": "yes", "payment:touchngo": "yes", "payment:visa": "yes", "phone": "+603-2142 1136", "shop": "convenience", "short_name": "7-11", "website": "https://www.7eleven.com.my/"}}, {"type": "node", "id": 4321143389, "lat": 3.1690895, "lon": 101.6958068, "tags": {"branch": "2 J Ipoh", "brand": "7-Eleven", "brand:wikidata": "Q259340", "brand:wikipedia": "en:7-Eleven", "name": "7-Eleven", "opening_hours": "24/7", "shop": "convenience"}}, {"type": "node", "id": 4321143489, "lat": 3.1664286, "lon": 101.6965103, "tags": {"addr:city": "Kuala Lumpur", "addr:place": "Chow Kit", "addr:street": "Jalan Putra", "brand": "7-Eleven", "brand:wikidata": "Q259340", "brand:wikipedia": "en:7-Eleven", "currency:MYR": "yes", "name": "7-Eleven", "opening_hours": "24/7", "operator": "7-Eleven Malaysia Sdn Bhd", "payment:cash": "yes", "payment:coins": "yes", "payment:touchngo": "yes", "payment:visa": "yes", "phone": "+603-2142 1136", "shop": "convenience", "short_name": "7-11", "website": "https://www.7eleven.com.my/"}}, {"type": "node", "id": 4324864090, "lat": 3.149445, "lon": 101.7122589, "tags": {"amenity": "restaurant", "name": "Grandmama's Pavillion Restaurant", "name:en": "Grandmama's Pavillion Restaurant", "name:it": "Grandmama's Pavillion"}}, {"type": "node", "id": 4326809190, "lat": 3.1530757, "lon": 101.7037119, "tags": {"amenity": "restaurant", "name": "Ristorante Moghul Mahal", "name:en": "Ristorante Moghul Mahal"}}, {"type": "node", "id": 4329258589, "lat": 3.1409386, "lon": 101.6889136, "tags": {"addr:city": "Kuala Lumpur", "addr:housenumber": "5", "addr:postcode": "50480", "addr:street": "Jalan Perdana", "fee": "no", "name": "Muzium Polis Diraja Malaysia", "name:en": "Royal Malaysia Police Museum", "name:ja": "\u8b66\u5bdf\u535a\u7269\u9928", "name:zh": "\u9a6c\u6765\u897f\u4e9a\u7687\u5bb6\u8b66\u5bdf\u535a\u7269\u9986", "opening_hours": "Tu-Su 10:00-18:00; Fr 12:30-14:30 off \"Friday's prayer\"", "tourism": "museum", "wikidata": "Q3015254", "wikimedia_commons": "Category:Royal Malaysia Police Museum", "wikipedia": "en:Royal Malaysian Police Museum"}}, {"type": "node", "id": 4330647889, "lat": 3.1661436, "lon": 101.7028535, "tags": {"addr:housenumber": "154", "addr:postcode": "50300", "addr:street": "Jalan Raja Abdullah", "amenity": "restaurant", "name": "D'lala Seafood"}}, {"type": "node", "id": 4331553892, "lat": 3.1490815, "lon": 101.6980107, "tags": {"addr:city": "Kuala Lumpur", "addr:housenumber": "17", "addr:postcode": "50000", "addr:street": "Jalan Tun H.S. Lee", "email": "thousandmileskl@gmail.com", "facebook": "https://www.facebook.com/1000-Miles-Hotel-Kuala-Lumpur-818949781537435/", "name": "1000 Miles", "phone": "+60 32022 3333", "tourism": "hotel", "website": "http://1000mileskl.com/"}}, {"type": "node", "id": 4335510491, "lat": 3.1530434, "lon": 101.6985587, "tags": {"bench": "yes", "bus": "yes", "highway": "bus_stop", "name": "Hentian Munshi Abdullah", "name:ms": "Hentian Munshi Abdullah", "operator": "Rapid KL;Selangor Omnibus;DBKL", "public_transport": "platform", "ref": "KL31", "route_ref": "100;103;104;107;120;151;171;173;202;220;250;300;303;BLUE", "shelter": "yes"}}, {"type": "node", "id": 4336427589, "lat": 3.1469835, "lon": 101.6959496, "tags": {"bench": "no", "bin": "no", "bus": "yes", "highway": "bus_stop", "name": "Hab Medan Pasar (LPB)", "name:ms": "Hab Medan Pasar (LPB)", "operator": "Rapid KL", "public_transport": "platform", "ref": "KL115", "route_ref": "151;171;173;202;220", "shelter": "no"}}, {"type": "node", "id": 4337129208, "lat": 3.1432247, "lon": 101.7105407, "tags": {"bus": "yes", "highway": "bus_stop", "name": "Plaza Imbi", "public_transport": "platform", "ref": "KL122"}}, {"type": "node", "id": 4339373689, "lat": 3.1505543, "lon": 101.6956375, "tags": {"bench": "yes", "bus": "yes", "highway": "bus_stop", "name": "Menara UAB/CIMB", "name:ms": "Menara UAB/CIMB", "old_ref": "TP 6", "operator": "Rapid KL", "public_transport": "platform", "ref": "KL106", "route_ref:rapidkl": "180;851", "shelter": "yes", "source": "data.gov.my"}}, {"type": "node", "id": 4341197890, "lat": 3.1567508, "lon": 101.6954516, "tags": {"bench": "yes", "bin": "yes", "bus": "yes", "highway": "bus_stop", "lit": "yes", "name": "Sogo KL", "operator": "Rapid KL;Selangor Omnibus;DBKL", "public_transport": "platform", "ref": "KL1940", "route_ref": "100;103;104;107;120;151;171;173;202;220;250", "shelter": "yes", "tactile_paving": "yes", "wheelchair": "yes"}}, {"type": "node", "id": 4345281495, "lat": 3.1457619, "lon": 101.6964682, "tags": {"amenity": "restaurant", "name": "Restoran Loong Huang", "name:it": "Loong Huang", "name:ms": "Restoran Loong Huang", "name:zh": "\u9f99\u65fa\u8336\u9910\u5ba4", "name:zh-Hans": "\u9f99\u65fa\u8336\u9910\u5ba4", "name:zh-Hant": "\u9f8d\u65fa\u8336\u9910\u5ba4"}}, {"type": "node", "id": 4347884694, "lat": 3.1494005, "lon": 101.6979006, "tags": {"amenity": "restaurant", "level": "1", "name": "Betel Leaf", "name:en": "Betel Leaf"}}, {"type": "node", "id": 4348841991, "lat": 3.143634, "lon": 101.6985536, "tags": {"amenity": "restaurant", "name": "Restoran Fong Yuan"}}, {"type": "node", "id": 4349750489, "lat": 3.1501465, "lon": 101.6923972, "tags": {"addr:postcode": "50480", "addr:street": "Jalan Tangsi, Wilayah Persekutuan", "amenity": "school", "name": "Universiti Tun Abdul Razak", "name:zh": "\u6566\u62c9\u8428\u5927\u5b66"}}, {"type": "node", "id": 4352721890, "lat": 3.1395604, "lon": 101.7129214, "tags": {"name": "City Comfort", "name:en": "City Comfort", "tourism": "hotel"}}, {"type": "node", "id": 4360836990, "lat": 3.1413898, "lon": 101.6972869, "tags": {"amenity": "restaurant", "name": "Ali Muthu & Ahhack", "name:en": "Ali Muthu & Ahhack"}}, {"type": "node", "id": 4361365090, "lat": 3.1444497, "lon": 101.7093101, "tags": {"amenity": "restaurant", "name": "Outback"}}, {"type": "node", "id": 4365494946, "lat": 3.1520282, "lon": 101.712095, "tags": {"amenity": "restaurant", "cuisine": "german", "facebook": "https://www.facebook.com/Bavarian-Bierhaus-Wisma-UOA-II-414721655306975/", "level": "0", "name": "Bavarian Bierhaus", "name:en": "Bavarian Bierhaus", "opening_hours": "11:00-23:00", "phone": "+603 2144 2826", "website": "https://www.bavarianbierhaus.com/"}}, {"type": "node", "id": 4368900792, "lat": 3.1498173, "lon": 101.7130879, "tags": {"amenity": "restaurant", "name": "La Boca", "name:en": "La Boca"}}, {"type": "node", "id": 4382931289, "lat": 3.153669, "lon": 101.694597, "tags": {"bench": "yes", "bin": "yes", "bus": "yes", "highway": "bus_stop", "lit": "yes", "name": "Menara DBKL 2", "network": "MRT Feeder Bus;GO KL City Bus", "operator": "Rapid Bus;DBKL", "public_transport": "platform", "ref": "KL39", "route_ref": "180;190;T820;RED", "shelter": "yes", "tactile_paving": "yes"}}, {"type": "node", "id": 4384693789, "lat": 3.1438057, "lon": 101.6966688, "tags": {"addr:street": "Jalan Tun H S Lee", "amenity": "restaurant", "cuisine": "chinese", "loc_name:en": "Sin Kiew Yee", "name": "Restoran Kiew Yee Baru", "name:zh": "\u65b0\u4e5d\u5982\u6d77\u9c9c\u996d\u5e97", "name:zh-Hant": "\u65b0\u4e5d\u5982\u6d77\u9bae\u98ef\u5e97"}}, {"type": "node", "id": 4393521291, "lat": 3.1463214, "lon": 101.7081202, "tags": {"addr:city": "Kuala Lumpur", "addr:housenumber": "45", "addr:postcode": "50200", "addr:street": "Tengkat Tong Shin", "name": "Alpha Genesis", "phone": "+60321412000", "stars": "3", "tourism": "hotel", "website": "http://www.alphagenesishotel.com/"}}, {"type": "node", "id": 4400794158, "lat": 3.151044, "lon": 101.7085706, "tags": {"amenity": "restaurant", "cuisine": "japanese", "name": "Coco Tei"}}, {"type": "node", "id": 4400794161, "lat": 3.1530191, "lon": 101.7073428, "tags": {"amenity": "restaurant", "level": "3", "name": "Elegant Inn", "name:en": "Elegant Inn"}}, {"type": "node", "id": 4400794165, "lat": 3.1517044, "lon": 101.7084302, "tags": {"amenity": "restaurant", "level": "1", "name": "Hintata"}}, {"type": "node", "id": 4400794167, "lat": 3.150599, "lon": 101.7098386, "tags": {"addr:city": "Kuala Lumpur", "addr:housenumber": "2", "addr:postcode": "50250", "addr:street": "Jalan Tengah, Off Jalan Sultan Ismail", "name": "Lodge Paradize Hotel", "tourism": "hotel"}}, {"type": "node", "id": 4400794168, "lat": 3.1509167, "lon": 101.7088528, "tags": {"amenity": "restaurant", "cuisine": "chinese", "name": "New Shanghai"}}, {"type": "node", "id": 4400794174, "lat": 3.1554201, "lon": 101.7056443, "tags": {"amenity": "restaurant", "cuisine": "japanese", "name": "Uzen", "name:en": "Uzen", "name:ms": "Uzen"}}, {"type": "node", "id": 4400796066, "lat": 3.1499057, "lon": 101.7125597, "tags": {"amenity": "restaurant", "level": "3", "name": "The Pressroom", "name:en": "The Pressroom"}}, {"type": "node", "id": 4400802605, "lat": 3.1577902, "lon": 101.7131719, "tags": {"amenity": "restaurant", "name": "Melur & Thyme", "name:en": "Melur & Thyme"}}, {"type": "node", "id": 4400802606, "lat": 3.1573162, "lon": 101.713137, "tags": {"amenity": "restaurant", "name": "The Apartment", "name:en": "The Apartment"}}, {"type": "node", "id": 4412975093, "lat": 3.1452737, "lon": 101.6973964, "tags": {"amenity": "restaurant", "name": "China town", "name:it": "China Town"}}, {"type": "node", "id": 4414874905, "lat": 3.1475002, "lon": 101.7111994, "tags": {"brand": "Ambassador", "name": "Ambassador", "name:en": "Ambassador", "name:zh": "\u5927\u4f7f\u9152\u5e97", "name:zh-Hans": "\u5927\u4f7f\u9152\u5e97", "name:zh-Hant": "\u5927\u4f7f\u9152\u5e97", "stars": "2", "tourism": "hotel"}}, {"type": "node", "id": 4419730189, "lat": 3.1495209, "lon": 101.7123563, "tags": {"amenity": "restaurant", "name": "Morganfield's", "name:en": "Morganfield's", "name:zh": "\u5927\u732a\u6252\u9910\u5385", "name:zh-Hans": "\u5927\u732a\u6252\u9910\u5385", "name:zh-Hant": "\u5927\u8c6c\u6252\u9910\u5ef3"}}, {"type": "node", "id": 4423264501, "lat": 3.1435269, "lon": 101.6985493, "tags": {"addr:housenumber": "60", "addr:postcode": "50000", "addr:street": "Jalan Sultan", "amenity": "restaurant", "cuisine": "chinese", "name": "Nam Heong", "name:zh": "\u5357\u9999\u9e21\u996d", "opening_hours": "Mo-Su 10:00-15:00", "phone": "+60320785879", "website": "http://namheongchickenrice.com"}}, {"type": "node", "id": 4434688342, "lat": 3.143468, "lon": 101.7107145, "tags": {"addr:city": "Kuala Lumpur", "addr:country": "MY", "addr:postcode": "55100", "addr:street": "Jalan Imbi", "branch": "Amoda", "brand": "KK Super Mart", "brand:wikidata": "Q95721993", "name": "KK Super Mart", "opening_hours": "24/7", "operator": "KK Supermart & Superstore Sdn Bhd", "ref": "AMD", "shop": "convenience", "short_name": "KK", "website": "https://kkgroup.my/kk-super-mart"}}, {"type": "node", "id": 4434688346, "lat": 3.1559042, "lon": 101.6954115, "tags": {"amenity": "restaurant", "cuisine": "malaysian", "name": "Ngopi Ngopi", "name:en": "Ngopi Ngopi"}}, {"type": "node", "id": 4434688349, "lat": 3.1575528, "lon": 101.6957106, "tags": {"amenity": "restaurant", "cuisine": "malaysian", "name": "Pertama Bistro", "name:en": "Pertama Bistro"}}, {"type": "node", "id": 4434688357, "lat": 3.1540583, "lon": 101.6966155, "tags": {"amenity": "restaurant", "cuisine": "malaysian", "name": "Samarasa"}}, {"type": "node", "id": 4434690805, "lat": 3.1425137, "lon": 101.7098798, "tags": {"brand": "7-Eleven", "brand:wikidata": "Q259340", "brand:wikipedia": "en:7-Eleven", "currency:MYR": "yes", "name": "7-Eleven", "operator": "7-Eleven Malaysia Sdn Bhd", "payment:cash": "yes", "payment:coins": "yes", "payment:touchngo": "yes", "payment:visa": "yes", "phone": "+603-2142 1136", "shop": "convenience", "short_name": "7-11", "website": "https://www.7eleven.com.my/"}}, {"type": "node", "id": 4442096591, "lat": 3.1687991, "lon": 101.7055534, "tags": {"amenity": "school", "name": "Institut Latihan Islam Malaysia", "name:ms": "Institut Latihan Islam Malaysia"}}, {"type": "node", "id": 4476544302, "lat": 3.1547017, "lon": 101.708545, "tags": {"amenity": "restaurant", "name": "Senga Dining", "name:en": "Senga Dining", "name:ru": "\u0438\u0440\u043b\u0430\u043d\u0434\u0441\u043a\u0438\u0439 \u043f\u0430\u0431"}}, {"type": "node", "id": 4476550598, "lat": 3.1551145, "lon": 101.7089216, "tags": {"branch": "Rohas Perkasa KLCC", "brand": "CU", "brand:wikidata": "Q12580836", "brand:wikipedia": "ko:CU (\ud3b8\uc758\uc810)", "name": "CU", "shop": "convenience", "source": "https://www.mapillary.com/app/?pKey=1212305045951991&focus=photo"}}, {"type": "node", "id": 4476551094, "lat": 3.1503825, "lon": 101.7043474, "tags": {"amenity": "restaurant", "name": "Pampas", "name:en": "Pampas"}}, {"type": "node", "id": 4479286489, "lat": 3.1637063, "lon": 101.6958373, "tags": {"addr:housenumber": "60A", "addr:street": "Jalan Raja Laut", "amenity": "restaurant", "name": "Ong Lai", "name:en": "Ong Lai", "name:zh-Hans": "\u65fa\u6765(\u5434\u8bb0)\u996d\u6863"}}, {"type": "node", "id": 4482281415, "lat": 3.1474986, "lon": 101.7082688, "tags": {"addr:housenumber": "50A", "addr:street": "Changkat Bukit Bintang", "amenity": "restaurant", "contact:facebook": "https://www.facebook.com/dininginthedarkkl", "contact:instagram": "https://www.instagram.com/dininginthedarkkl/", "contact:whatsapp": "https://api.whatsapp.com/send?phone=60123052011", "cuisine": "international", "description": "Set menu served in a completely dark room by blind waiters.", "diet:vegetarian": "yes", "email": "customerservice@dininginthedarkkl.com", "level": "1", "name": "Dining in the Dark KL", "opening_hours": "18:00-23:00; Mo off", "operator": "Werner Kuhn", "outdoor_seating": "no", "phone": "+60123052011", "start_date": "2012", "website": "https://dininginthedarkkl.com/"}}, {"type": "node", "id": 4483361992, "lat": 3.1654262, "lon": 101.698407, "tags": {"name": "Baru Chow Kit Market", "name:en": "Baru Chow Kit Market", "shop": "convenience"}}, {"type": "node", "id": 4496933291, "lat": 3.1453423, "lon": 101.6969687, "tags": {"amenity": "restaurant", "cuisine": "arab", "name": "Arab Shawarma", "name:en": "Arab Shawarma"}}, {"type": "node", "id": 4504569197, "lat": 3.1463948, "lon": 101.6957642, "tags": {"brand": "7-Eleven", "brand:wikidata": "Q259340", "brand:wikipedia": "en:7-Eleven", "currency:MYR": "yes", "name": "7-Eleven", "opening_hours": "24/7", "operator": "7-Eleven Malaysia Sdn Bhd", "payment:cash": "yes", "payment:coins": "yes", "payment:touchngo": "yes", "payment:visa": "yes", "phone": "+603-2142 1136", "shop": "convenience", "short_name": "7-11", "website": "https://www.7eleven.com.my/"}}, {"type": "node", "id": 4506245589, "lat": 3.1506105, "lon": 101.7090709, "tags": {"branch": "Wisma Lim Foo Yong", "brand": "FamilyMart", "brand:wikidata": "Q1191685", "brand:wikipedia": "en:FamilyMart", "email": "info@familymart.com.mv", "name": "FamilyMart", "name:zh": "\u5168\u5bb6", "opening_hours": "24/7", "operator": "FamilyMart", "shop": "convenience"}}, {"type": "node", "id": 4506245889, "lat": 3.1482212, "lon": 101.7089022, "tags": {"amenity": "restaurant", "internet_access": "wlan", "name": "Suriani"}}, {"type": "node", "id": 4507472691, "lat": 3.1479856, "lon": 101.7150232, "tags": {"amenity": "restaurant", "name": "The Counter", "name:en": "The Counter"}}, {"type": "node", "id": 4510308893, "lat": 3.1466654, "lon": 101.709655, "tags": {"brand": "7-Eleven", "brand:wikidata": "Q259340", "brand:wikipedia": "en:7-Eleven", "currency:MYR": "yes", "name": "7-Eleven", "opening_hours": "24/7", "operator": "7-Eleven Malaysia Sdn Bhd", "payment:cash": "yes", "payment:coins": "yes", "payment:touchngo": "yes", "payment:visa": "yes", "phone": "+603-2142 1136", "shop": "convenience", "short_name": "7-11", "website": "https://www.7eleven.com.my/"}}, {"type": "node", "id": 4510356289, "lat": 3.1451234, "lon": 101.708218, "tags": {"brand": "7-Eleven", "brand:wikidata": "Q259340", "brand:wikipedia": "en:7-Eleven", "currency:MYR": "yes", "name": "7-Eleven", "opening_hours": "24/7", "operator": "7-Eleven Malaysia Sdn Bhd", "payment:cash": "yes", "payment:coins": "yes", "payment:touchngo": "yes", "payment:visa": "yes", "phone": "+603-2142 1136", "shop": "convenience", "short_name": "7-11", "website": "https://www.7eleven.com.my/"}}, {"type": "node", "id": 4525948489, "lat": 3.1468405, "lon": 101.6869418, "tags": {"description": "Very small collection (84) of herbs and plants", "name": "Herbarium", "opening_hours": "Mo-Fr 08:30-17:00", "tourism": "museum"}}, {"type": "node", "id": 4535190389, "lat": 3.1511, "lon": 101.710204, "tags": {"bus": "yes", "highway": "bus_stop", "name": "Stesen Monorel Raja Chulan", "name:ms": "Stesen Monorel Raja Chulan", "old_name": "Raja Chulan Monorail/Menara KH", "operator": "DBKL", "public_transport": "platform", "ref": "KL22", "route_ref": "GREEN"}}, {"type": "node", "id": 4539401590, "lat": 3.1413741, "lon": 101.6973577, "tags": {"amenity": "restaurant", "cuisine": "asian", "name": "Old China Caf\u00e9", "name:en": "Old China Caf\u00e9"}}, {"type": "node", "id": 4544300889, "lat": 3.150643, "lon": 101.707128, "tags": {"bin": "yes", "bus": "yes", "highway": "bus_stop", "name": "Wisma MPL", "operator": "Rapid KL;DBKL", "public_transport": "platform", "ref": "KL11", "route_ref": "PURPLE", "shelter": "yes"}}, {"type": "node", "id": 4561924390, "lat": 3.1677739, "lon": 101.6997204, "tags": {"alt_name": "NS PENYELIDIKAN PERUBATAN", "bus": "yes", "highway": "bus_stop", "name": "Institut Penyelidkan Perubatan", "name:ms": "Institut Penyelidkan Perubatan", "operator": "Rapid KL;DBKL", "public_transport": "platform", "ref": "KL57", "route_ref": "220;302;BLUE", "short_name": "IPP"}}, {"type": "node", "id": 4563097690, "lat": 3.1634702, "lon": 101.7179064, "tags": {"amenity": "restaurant", "name": "Roofino Bar & Skydining", "name:en": "Roofino Bar & Skydining"}}, {"type": "node", "id": 4580910089, "lat": 3.1635913, "lon": 101.7030791, "tags": {"amenity": "hospital", "healthcare": "hospital", "internet_access": "wlan", "name": "Al-Islam Specialist Hospital", "name:en": "Al-Islam Specialist Hospital", "name:tr": "El-\u0130slam \u0130htisas Hastanesi", "opening_hours": "24/7", "phone": "+603 2693 1007"}}, {"type": "node", "id": 4588629091, "lat": 3.1670541, "lon": 101.712415, "tags": {"addr:postcode": "50400", "addr:street": "Jalan Raja Uda 1", "amenity": "restaurant", "cuisine": "arab;moroccan;lebanese;ara", "name": "Marakesh", "name:en": "Marakesh", "opening_hours": "Mo-Su 11:00-03:00"}}, {"type": "node", "id": 4600234390, "lat": 3.151936, "lon": 101.6973321, "tags": {"amenity": "restaurant", "cuisine": "indian", "name": "An-Nasuha Beverages"}}, {"type": "node", "id": 4607325792, "lat": 3.1518176, "lon": 101.7028692, "tags": {"amenity": "restaurant", "cuisine": "regional", "name": "Laksa Pot", "name:en": "Laksa Pot", "opening_hours": "Mo-Fr 08:30-19:30; Sa-Su 10:30-21:30"}}, {"type": "node", "id": 4611958489, "lat": 3.1501594, "lon": 101.6974903, "tags": {"addr:city": "Kuala Lumpur", "addr:street": "Jalan Melaka", "amenity": "restaurant", "cuisine": "indian", "internet_access": "wlan", "name": "Nasi Kandar KL Express", "name:en": "Nasi Kandar KL Express", "opening_hours": "24/7"}}, {"type": "node", "id": 4616047293, "lat": 3.1468784, "lon": 101.7086555, "tags": {"addr:city": "Kuala Lumpur", "addr:housenumber": "53", "addr:postcode": "50200", "addr:street": "Changkat Bukit Bintang", "amenity": "restaurant", "name": "Mongolia BBQ", "opening_hours": "Mo-Su 18:00-05:30", "phone": "+6012-279 4496"}}, {"type": "node", "id": 4618203395, "lat": 3.1443127, "lon": 101.7083435, "tags": {"addr:country": "MY", "brand": "KK Super Mart", "brand:wikidata": "Q95721993", "name": "KK Super Mart", "operator": "KK Supermart & Superstore Sdn Bhd", "shop": "convenience", "short_name": "KK", "website": "https://kkgroup.my/kk-super-mart"}}, {"type": "node", "id": 4618290062, "lat": 3.1459344, "lon": 101.7016316, "tags": {"addr:housenumber": "44A-44B", "addr:postcode": "55100", "addr:street": "Jalan Pudu", "name": "Hotel 99", "name:en": "Hotel 99", "name:ms": "Hotel 99", "phone": "60320786666", "tourism": "hotel"}}, {"type": "node", "id": 4618290063, "lat": 3.1459982, "lon": 101.7014153, "tags": {"name": "Transit Hotel", "name:en": "Transit Hotel", "name:ms": "Transit Hotel", "tourism": "hotel"}}, {"type": "node", "id": 4618406910, "lat": 3.1413537, "lon": 101.6954117, "tags": {"bench": "yes", "bus": "yes", "highway": "bus_stop", "name": "HAB Pasar Seni (Platform E1 - E3)", "name:en": "HAB Pasar Seni (Platform E1 - E3)", "operator": "Rapid KL", "public_transport": "platform", "ref": "KL1933", "route_ref": "600", "shelter": "yes"}}, {"type": "node", "id": 4618406911, "lat": 3.1425107, "lon": 101.6952663, "tags": {"bench": "yes", "bus": "yes", "highway": "bus_stop", "local_ref": "Platform B", "name": "Pasar Seni (Platform B3 - B4)", "name:en": "Pasar Seni (Platform B3 - B4)", "operator": "Rapid KL", "public_transport": "platform", "ref": "KL2213", "route_ref": "751", "shelter": "yes"}}, {"type": "node", "id": 4618539270, "lat": 3.1424139, "lon": 101.6972302, "tags": {"addr:city": "Kuala Lumpur", "addr:street": "Jalan Sultan", "name": "Hotel City Inn", "tourism": "hotel"}}, {"type": "node", "id": 4625396045, "lat": 3.1586497, "lon": 101.7080652, "tags": {"addr:city": "Kuala Lumpur", "addr:housenumber": "138", "addr:postcode": "50450", "addr:street": "Jalan Ampang", "brand": "Maya", "email": "info@hotelmaya.com.my", "internet_access": "wlan", "internet_access:fee": "no", "name": "Hotel Maya", "name:en": "Maya Hotel", "name:ms": "Hotel Maya", "phone": "+60 3 2711 8866", "stars": "5", "tourism": "hotel", "website": "https://www.hotelmaya.com.my/"}}, {"type": "node", "id": 4627772477, "lat": 3.145855, "lon": 101.7075938, "tags": {"addr:city": "Kuala Lumpur", "addr:housenumber": "25", "addr:postcode": "50200", "addr:street": "Tengkat Tong Shin", "amenity": "restaurant", "cuisine": "vietnamese", "description": "Delicious vietnamese cuisine", "email": "pliao800@gmail.com", "name": "Sao Nam", "opening_hours": "12:30-14:30,19:30-22:30", "phone": "+60321441225", "website": "https://www.saonam.com.my/"}}, {"type": "node", "id": 4629689965, "lat": 3.1481039, "lon": 101.6974265, "tags": {"addr:city": "Kuala Lumpur", "addr:housenumber": "52", "addr:postcode": "50000", "addr:street": "Jalan Tun H.S. Lee", "brand": "Hollywood Inn", "description": "Rooms starting from RM20. No online reviews whatsoever.", "name": "Hollywood Inn", "name:en": "Hollywood Inn", "phone": "+60 32031 5668", "stars": "1", "tourism": "hotel"}}, {"type": "node", "id": 4629689966, "lat": 3.1485721, "lon": 101.6973816, "tags": {"addr:city": "Kuala Lumpur", "addr:housenumber": "48", "addr:postcode": "50000", "addr:street": "Jalan Tun Perak", "brand": "YY48", "email": "enquiries@yy48hotel.com.my", "facebook": "https://www.facebook.com/YY48-Hotel-1584782181749657/", "name": "YY48", "name:en": "YY48", "name:ms": "YY48", "phone": "+60 32022 4448", "tourism": "hotel", "website": "http://www.yy48hotel.com.my/"}}, {"type": "node", "id": 4629725711, "lat": 3.1494094, "lon": 101.6982781, "tags": {"addr:city": "Kuala Lumpur", "addr:housenumber": "1&3", "addr:postcode": "50000", "addr:street": "Jalan Tun H.S. Lee", "level": "1", "name": "Drop Inn Logde", "phone": "+60 32078 6314", "tourism": "hotel"}}, {"type": "node", "id": 4629762809, "lat": 3.1488086, "lon": 101.6972422, "tags": {"addr:city": "Kuala Lumpur", "addr:housenumber": "49", "addr:postcode": "50100", "addr:street": "Leboh Ampang", "brand": "1915", "name": "1915", "name:en": "1915", "name:ms": "1915", "name:zh": "1915", "operator": "Mutiara Meriah Sdn Bhd", "phone": "+6032026 0042", "source": "http://www.hotel1915kl.com.my/", "stars": "2", "tourism": "hotel"}}, {"type": "node", "id": 4629762811, "lat": 3.1488268, "lon": 101.696784, "tags": {"addr:city": "Kuala Lumpur", "addr:housenumber": "19", "addr:postcode": "50050", "addr:street": "Jalan Tun Perak", "brand": "Hotel Al-Amin", "name": "Hotel Al-Amin", "name:ms": "Hotel Al-Amin", "phone": "+60 32026 2254", "tourism": "hotel"}}, {"type": "node", "id": 4629828983, "lat": 3.1656835, "lon": 101.7096386, "tags": {"amenity": "restaurant", "name": "Wak Nuar Ayam Penyet"}}, {"type": "node", "id": 4639805263, "lat": 3.1583115, "lon": 101.717946, "tags": {"amenity": "restaurant", "cuisine": "latin_american", "level": "23a", "name": "Fuego Troika Sky Dining", "name:en": "Fuego Troika Sky Dining", "opening_hours": "18:30-22:30", "phone": "+60 32162 0886", "website": "https://www.troikaskydining.com/fuego/"}}, {"type": "node", "id": 4650316792, "lat": 3.1452982, "lon": 101.6967162, "tags": {"addr:city": "Kuala Lumpur", "addr:postcode": "50000", "addr:street": "Jalan Tun Tan Cheng Lock", "amenity": "restaurant", "cuisine": "chinese", "name": "Kedai Kopi Lai Foong", "name:ms": "Kedai Kopi Lai Foong", "name:zh": "\u4e3d\u4e30\u8336\u9910\u5ba4", "name:zh-Hans": "\u4e3d\u4e30\u8336\u9910\u5ba4", "name:zh-Hant": "\u9e97\u8c50\u8336\u9910\u5ba4", "opening_hours": "Mo-Su 07:30-16:30"}}, {"type": "node", "id": 4659662389, "lat": 3.1453687, "lon": 101.6966939, "tags": {"amenity": "restaurant", "name": "Lai Fong Hawker Centre", "name:en": "Lai Fong Hawker Centre"}}, {"type": "node", "id": 4661131060, "lat": 3.1479165, "lon": 101.7145666, "tags": {"addr:city": "Kuala Lumpur", "addr:housenumber": "199", "addr:postcode": "55100", "addr:street": "Jalan Bukit Bintang", "brand": "Westin", "brand:wikidata": "Q1969162", "brand:wikipedia": "en:Westin Hotels & Resorts", "email": "Westin.kualalumpur@westin.com", "facebook": "https://www.facebook.com/westin.kl", "internet_access": "wlan", "internet_access:fee": "no", "name": "The Westin Kuala Lumpur", "name:en": "The Westin Kuala Lumpur", "name:zh": "\u5a01\u65af\u6c40\u9152\u5e97", "name:zh-Hans": "\u5a01\u65af\u6c40\u9152\u5e97", "name:zh-Hant": "\u5a01\u65af\u6c40\u9152\u5e97", "operator": "Marriott International", "phone": "+60 32731 8333", "rooms": "443", "stars": "5", "tourism": "hotel", "website": "http://www.thewestinkualalumpur.com"}}, {"type": "node", "id": 4661345460, "lat": 3.1458009, "lon": 101.7160126, "tags": {"amenity": "restaurant", "cuisine": "korean", "name": "Koryo", "name:en": "Koryo", "opening_hours": "12:00-15:00,17:30-22:00; Su 12:00-22:00", "phone": "+60 32141 2380"}}, {"type": "node", "id": 4661345461, "lat": 3.145149, "lon": 101.717656, "tags": {"addr:city": "Kuala Lumpur", "addr:housenumber": "19", "addr:postcode": "55100", "addr:street": "Jalan Kamuning", "brand": "Victory Street", "internet_access": "wlan", "internet_access:fee": "no", "name": "Victory Street", "name:en": "Victory Street", "rooms": "47", "stars": "2", "tourism": "hotel", "website": "http://www.vs.victorystreetboutiquehotel.com/"}}, {"type": "node", "id": 4661368509, "lat": 3.1445503, "lon": 101.7143588, "tags": {"name": "Estana Golden", "tourism": "hotel"}}, {"type": "node", "id": 4661609468, "lat": 3.144319, "lon": 101.7063901, "tags": {"name": "Metropol", "name:en": "Metropol", "stars": "3", "tourism": "hotel"}}, {"type": "node", "id": 4661609470, "lat": 3.1445925, "lon": 101.7059438, "tags": {"check_date": "2024-11-28", "name": "My Hotel @ Bukit Bintang", "name:en": "My Hotel @ Bukit Bintang", "tourism": "hotel"}}, {"type": "node", "id": 4661609471, "lat": 3.1449395, "lon": 101.7065646, "tags": {"name": "Corona Inn", "name:en": "Corona Inn", "tourism": "hotel"}}, {"type": "node", "id": 4663074586, "lat": 3.1462279, "lon": 101.7097252, "tags": {"description": "Average to bad online ratings", "name": "Town View", "name:en": "Town View", "stars": "1", "tourism": "hotel"}}, {"type": "node", "id": 4663074587, "lat": 3.1465469, "lon": 101.7094742, "tags": {"addr:city": "Kuala Lumpur", "addr:housenumber": "79A", "addr:postcode": "50200", "addr:street": "Changkat Bukit Bintang", "description": "Average online ratings", "email": "enquiry@alorboutiquehotel.com", "name": "Alor Boutique", "phone": "+60-3-21100626", "stars": "3", "tourism": "hotel", "website": "http://www.alorboutiquehotel.com/"}}, {"type": "node", "id": 4663074588, "lat": 3.1466323, "lon": 101.7093753, "tags": {"addr:city": "Kuala Lumpur", "addr:housenumber": "75", "addr:postcode": "50200", "addr:street": "Changkat Bukit Bintang", "internet_access": "yes", "internet_access:fee": "no", "name": "Aura", "phone": "+60 32110 2575", "stars": "3", "tourism": "hotel", "website": "http://aurabukitbintang.com/"}}, {"type": "node", "id": 4663074989, "lat": 3.1467289, "lon": 101.7092369, "tags": {"addr:city": "Kuala Lumpur", "addr:housenumber": "69b-d", "addr:postcode": "50200", "addr:street": "Changkat Bukit Bintang", "description": "Average to bad online ratings", "internet_access": "yes", "internet_access:fee": "no", "name": "Day Cocoon", "phone": "+603 2110 1812", "stars": "2", "tourism": "hotel", "website": "http://www.daycocoonhotels.com/"}}, {"type": "node", "id": 4663075016, "lat": 3.1484854, "lon": 101.7076336, "tags": {"brand": "Ramada", "brand:wikidata": "Q1502859", "brand:wikipedia": "en:Ramada", "contact:instagram": "https://www.instagram.com/ramadaklcc/", "description": "Apartments. Good online ratings", "email": "enquiries.invito@uoahospitality.com.my", "facebook": "https://www.facebook.com/RamadaKLCC/", "name": "Ramada Suites KLCC", "phone": "+603-2386 9288", "tourism": "hotel", "website": "https://www.ramadaklcc.com/"}}, {"type": "node", "id": 4663075025, "lat": 3.1471471, "lon": 101.710126, "tags": {"description": "Good online ratings", "email": "reservation@izumihotel.com", "internet_access": "wlan", "internet_access:fee": "no", "name": "Izumi", "phone": "+60 3 2145 8833", "rooms": "108", "stars": "3", "tourism": "hotel", "website": "http://bukitbintang.izumihotel.com/"}}, {"type": "node", "id": 4663075027, "lat": 3.1482532, "lon": 101.7089727, "tags": {"addr:city": "Kuala Lumpur", "addr:housenumber": "12", "addr:postcode": "50200", "addr:street": "Jalan Angsoka", "description": "Good online ratings", "facebook": "https://www.facebook.com/Lacomme-inn-227545463981621", "internet_access": "wlan", "internet_access:fee": "no", "name": "LaComme Inn", "phone": "+60321415151", "rooms": "98", "stars": "3", "tourism": "hotel", "website": "http://lacommeinn.com.my/"}},